[
  {
    "name": "NorthwestTrek Wildlife Park",
    "address": {
      "streetAddress": "11610 Trek Drive EastEatonville, WA 98328",
      "mailingAddress": "Eatonville, WA 98328"
    },
    "phone": null,
    "website": "mailto:info@nwtrek.org",
    "socialLinks": {
      "facebook": "https://www.facebook.com/NWtrek",
      "twitter": null,
      "instagram": null,
      "linkedin": null,
      "youtube": "https://www.youtube.com/user/NWTrekWildlifePark"
    },
    "hours": null,
    "museumTypes": [
      "Park"
    ]
  },
  {
    "name": "Pioneer Farm & Ohop Indian Village",
    "address": {
      "streetAddress": "7716 Ohop Valley Road EEatonville, WA 98328",
      "mailingAddress": "Eatonville, WA 98328"
    },
    "phone": "360-832-6300",
    "website": "mailto:pioneer@rainierconnect.com",
    "socialLinks": {
      "facebook": null,
      "twitter": null,
      "instagram": null,
      "linkedin": null,
      "youtube": null
    },
    "hours": null,
    "museumTypes": [
      "History"
    ]
  },
  {
    "name": "Western Forest Industries Museum/Mt. Rainier Scenic Railroad",
    "address": {
      "streetAddress": "Mt. Rainier Scenic Railroad349 Mineral Creek RoadMineral, WA 98355",
      "mailingAddress": "P.O. Box 250Mineral, WA 98355"
    },
    "phone": "360-492-5588",
    "website": "mailto:admin@mrsr.org",
    "socialLinks": {
      "facebook": null,
      "twitter": null,
      "instagram": null,
      "linkedin": null,
      "youtube": null
    },
    "hours": "April 7thBunny Hunt Express – Departure 10:30 a.m. & 12:30 p.m.April 14th - May 19thSaturdays – Departures at 10:30 a.m. & 12:30 p.m.May 26th - May 28thMemorial Day Weekend – Departu 10:30 a.m., 12:30 p.m. & 2:30 June 2nd - 3rd & June 9th - 10Saturday and Sunday – Departur 10:30 a.m.; 12:30 p.m.; 2:30 pJune 13th – September 16thDaily Wednesday - Sunday – Dep 10:30 a.m.; 12:30 p.m.; 2:30 pSeptember 22nd – October 28thSaturdays & Sundays Times to be determined.",
    "museumTypes": [
      "Children's",
      "Culture",
      "History",
      "Specialized"
    ]
  },
  {
    "name": "Sno-Isle Genealogical Society",
    "address": {
      "streetAddress": "19827 Poplar WayLynnwood, WA 98036",
      "mailingAddress": null
    },
    "phone": "425-775-6267",
    "website": "mailto:askus@snoislegenealogy.org",
    "socialLinks": {
      "facebook": null,
      "twitter": null,
      "instagram": null,
      "linkedin": null,
      "youtube": null
    },
    "hours": "By appointment Tuesdays on 425-775-6267",
    "museumTypes": [
      "Culture",
      "History",
      "Historic House"
    ]
  },
  {
    "name": "Children's Activity Museum",
    "address": {
      "streetAddress": "118 E 4th AvenueEllensburg, WA 98926",
      "mailingAddress": null
    },
    "phone": "509-925-6789",
    "website": "mailto:childrensmuseum@kvalley.com",
    "socialLinks": {
      "facebook": null,
      "twitter": null,
      "instagram": null,
      "linkedin": null,
      "youtube": null
    },
    "hours": "Monday -CLOSED\nTuesday - CLOSED\nWednesday - 10-5\nThursday - 12-7\nFriday - 10-5\nSaturday - 10-5\nSunday - CLOSED",
    "museumTypes": [
      "Children's"
    ]
  },
  {
    "name": "Clymer Museum of Art",
    "address": {
      "streetAddress": "416 N. Pearl StreetEllensburg, WA 98926",
      "mailingAddress": "416 N. Pearl St.Ellensburg, WA 98926"
    },
    "phone": "509-962-6416",
    "website": "mailto:clymermuseum3@charter.net",
    "socialLinks": {
      "facebook": null,
      "twitter": null,
      "instagram": null,
      "linkedin": null,
      "youtube": null
    },
    "hours": null,
    "museumTypes": [
      "Art",
      "Culture"
    ]
  },
  {
    "name": "Hal Holmes Center - Ellensburg Public Library",
    "address": {
      "streetAddress": "209 N. Ruby St.Ellensburg, WA 98926",
      "mailingAddress": null
    },
    "phone": "509-962-7250",
    "website": "mailto:library@ci.ellensburg.wa.us",
    "socialLinks": {
      "facebook": null,
      "twitter": null,
      "instagram": null,
      "linkedin": null,
      "youtube": null
    },
    "hours": null,
    "museumTypes": [
      "Library"
    ]
  },
  {
    "name": "Kittitas County Historical Museum",
    "address": {
      "streetAddress": "114 E 3rd AvenueEllensburg, WA 98926",
      "mailingAddress": null
    },
    "phone": "509-925-3778",
    "website": "mailto:kchm@kchm.org",
    "socialLinks": {
      "facebook": null,
      "twitter": null,
      "instagram": null,
      "linkedin": null,
      "youtube": null
    },
    "hours": "Mon-Sat 10-4, May - Sept; Tues-Sat 11-3, Oct-April.",
    "museumTypes": []
  },
  {
    "name": "Wanapum Dam Heritage Center",
    "address": {
      "streetAddress": "Interstate 90 crosses the ColumbiaEphrata, WA 98823",
      "mailingAddress": "P. O. Box 878Ephrata, WA 98823"
    },
    "phone": "509-793-1532",
    "website": "mailto:sparker@gcpud.org",
    "socialLinks": {
      "facebook": null,
      "twitter": null,
      "instagram": null,
      "linkedin": null,
      "youtube": null
    },
    "hours": null,
    "museumTypes": [
      "Archaeology",
      "Culture",
      "General",
      "History",
      "Science",
      "Specialized"
    ]
  },
  {
    "name": "Imagine Children's Musuem",
    "address": {
      "streetAddress": "1502 Wall StreetEverett, WA 98201",
      "mailingAddress": null
    },
    "phone": "425-258-1006",
    "website": "mailto:info@ImagineCM.org",
    "socialLinks": {
      "facebook": "https://www.facebook.com/ImagineChildrensMuseum",
      "twitter": null,
      "instagram": null,
      "linkedin": null,
      "youtube": null
    },
    "hours": "New hours as of June 29, 2009",
    "museumTypes": [
      "Children's"
    ]
  },
  {
    "name": "Schack Art Center",
    "address": {
      "streetAddress": "2921 Hoyt Ave.Everett, WA 98201",
      "mailingAddress": "P.O. Box 5038Everett, WA 98206"
    },
    "phone": "425-259-5050",
    "website": "mailto:artsinfo@schack.org",
    "socialLinks": {
      "facebook": "https://www.facebook.com/schackartcenter",
      "twitter": null,
      "instagram": null,
      "linkedin": null,
      "youtube": null
    },
    "hours": null,
    "museumTypes": [
      "Art",
      "Culture"
    ]
  },
  {
    "name": "Monte Cristo Preservation Association",
    "address": {
      "streetAddress": "Everett, WA 98206",
      "mailingAddress": "P. O. Box 471Everett, WA 98206"
    },
    "phone": "360-793-1534",
    "website": "https://www.mcpa.us/",
    "socialLinks": {
      "facebook": "https://www.facebook.com/pages/Monte-Cristo-Preservation-Association/113058038711440",
      "twitter": null,
      "instagram": null,
      "linkedin": null,
      "youtube": null
    },
    "hours": null,
    "museumTypes": []
  },
  {
    "name": "Snohomish County Museum & Historical Association",
    "address": {
      "streetAddress": "Everett, WA 98206",
      "mailingAddress": "P. O. Box 5556Everett, WA 98206"
    },
    "phone": null,
    "website": "https://www.cmiregistration.com/user/splash.jxp?org=249",
    "socialLinks": {
      "facebook": null,
      "twitter": null,
      "instagram": null,
      "linkedin": null,
      "youtube": null
    },
    "hours": "Wed-Sat 1-4 pm.",
    "museumTypes": [
      "History"
    ]
  },
  {
    "name": "The Northwest Room of the Everett Public Library",
    "address": {
      "streetAddress": "2702 HoytEverett, WA 98201",
      "mailingAddress": "Everett, WA 98201"
    },
    "phone": "425-257-8005",
    "website": "mailto:libnw@ci.everett.wa.us",
    "socialLinks": {
      "facebook": null,
      "twitter": null,
      "instagram": null,
      "linkedin": null,
      "youtube": null
    },
    "hours": null,
    "museumTypes": [
      "Library"
    ]
  },
  {
    "name": "Trestle Homeschool Association",
    "address": {
      "streetAddress": "806 - 88th Pl SWEverett, WA 98204",
      "mailingAddress": "Everett, WA 98204"
    },
    "phone": "425-348-3427",
    "website": "https://www.trestlehomeschoolassociation.org/",
    "socialLinks": {
      "facebook": null,
      "twitter": null,
      "instagram": null,
      "linkedin": null,
      "youtube": null
    },
    "hours": null,
    "museumTypes": [
      "History"
    ]
  },
  {
    "name": "Fairfield Museum",
    "address": {
      "streetAddress": "East 301 MainFairfield, WA 99012",
      "mailingAddress": "C/O Fairfield LibraryFairfield, WA 99012"
    },
    "phone": null,
    "website": "mailto:info@fairfieldmuseumwa.org",
    "socialLinks": {
      "facebook": null,
      "twitter": null,
      "instagram": null,
      "linkedin": null,
      "youtube": null
    },
    "hours": null,
    "museumTypes": [
      "History"
    ]
  },
  {
    "name": "Rhododendron Species Botanical Garden",
    "address": {
      "streetAddress": "2525 S. 336th StreetFederal Way, WA 98003",
      "mailingAddress": "P. O. Box 3798Federal Way, WA 98063"
    },
    "phone": "253-661-9377",
    "website": "mailto:steve@rhodygarden.org",
    "socialLinks": {
      "facebook": null,
      "twitter": null,
      "instagram": null,
      "linkedin": null,
      "youtube": null
    },
    "hours": null,
    "museumTypes": [
      "Arboretum",
      "Botanical Garden",
      "General",
      "Nature Centers",
      "Park",
      "Science"
    ]
  },
  {
    "name": "Ferndale Heritage Society",
    "address": {
      "streetAddress": "1788 Labounty DrFerndale, WA 98248",
      "mailingAddress": "P. O. Box 3127Ferndale, WA 98248"
    },
    "phone": "360-384-3693",
    "website": "mailto:park@ferndaleheritagesociety.com",
    "socialLinks": {
      "facebook": null,
      "twitter": null,
      "instagram": null,
      "linkedin": null,
      "youtube": null
    },
    "hours": null,
    "museumTypes": [
      "Historical Society"
    ]
  },
  {
    "name": "Forks Timber Museum",
    "address": {
      "streetAddress": "1421 S Forks AveForks, WA 98331",
      "mailingAddress": "P. O. Box 873Forks, WA 98331"
    },
    "phone": "360-374-9663",
    "website": "https://www.forks-web.com/fg/timbermuseum.htm",
    "socialLinks": {
      "facebook": null,
      "twitter": null,
      "instagram": null,
      "linkedin": null,
      "youtube": null
    },
    "hours": null,
    "museumTypes": [
      "Specialized"
    ]
  },
  {
    "name": "Fort Lewis Military Museum",
    "address": {
      "streetAddress": "Fort Lewis, WA 98433",
      "mailingAddress": "P. O. Box 331001Fort Lewis, WA 98433"
    },
    "phone": null,
    "website": "mailto:JBLMWebmaster@conus.army.mil",
    "socialLinks": {
      "facebook": null,
      "twitter": null,
      "instagram": null,
      "linkedin": null,
      "youtube": null
    },
    "hours": "Wed-Sun 12-4.",
    "museumTypes": []
  },
  {
    "name": "San Juan Historical Museum",
    "address": {
      "streetAddress": "323 & 405 Price St.Friday Harbor, WA 98250",
      "mailingAddress": "P. O. Box 441Friday Harbor, WA 98250"
    },
    "phone": "360-378-3949",
    "website": "https://sjmuseum.org/",
    "socialLinks": {
      "facebook": null,
      "twitter": null,
      "instagram": null,
      "linkedin": null,
      "youtube": null
    },
    "hours": null,
    "museumTypes": [
      "History"
    ]
  },
  {
    "name": "San Juan Island National Historic Park",
    "address": {
      "streetAddress": "Friday Harbor, WA 98250",
      "mailingAddress": "P. O. Box 429Friday Harbor, WA 98250"
    },
    "phone": null,
    "website": "https://www.nps.gov/sajh/home.htm",
    "socialLinks": {
      "facebook": null,
      "twitter": null,
      "instagram": null,
      "linkedin": null,
      "youtube": null
    },
    "hours": null,
    "museumTypes": [
      "Park"
    ]
  },
  {
    "name": "The Whale Museum",
    "address": {
      "streetAddress": "62 first Street NorthFriday Harbor, WA 98250",
      "mailingAddress": "P. O. Box 945Friday Harbor, WA 98250"
    },
    "phone": null,
    "website": "https://www.whale-museum.org/",
    "socialLinks": {
      "facebook": null,
      "twitter": null,
      "instagram": null,
      "linkedin": null,
      "youtube": null
    },
    "hours": null,
    "museumTypes": []
  },
  {
    "name": "Harbor History Museum",
    "address": {
      "streetAddress": "4121 Harborview DriveGig Harbor, WA 98332",
      "mailingAddress": "P. O. Box 744Gig Harbor, WA 98335"
    },
    "phone": "253-858-6722",
    "website": "mailto:info@harborhistorymuseum.org",
    "socialLinks": {
      "facebook": null,
      "twitter": null,
      "instagram": null,
      "linkedin": null,
      "youtube": null
    },
    "hours": "The museum is open Tuesday through Sunday, 10 am to 5 pm. Resource Room is open Thursdays from 10-4 and Saturdays from 10-1. The museum is closed Thanksgiving, Christmas Day, New Year's Day, Martin Luther King Jr. Day, and Independence Day.",
    "museumTypes": [
      "Culture",
      "History"
    ]
  },
  {
    "name": "Goldendale Observatory",
    "address": {
      "streetAddress": "1602 Observatory DriveGoldendale, WA 98620",
      "mailingAddress": "Goldendale, WA 98620"
    },
    "phone": "509-773-3141",
    "website": "mailto:goldendale.observatory@parks.wa.gov",
    "socialLinks": {
      "facebook": null,
      "twitter": null,
      "instagram": null,
      "linkedin": null,
      "youtube": null
    },
    "hours": null,
    "museumTypes": []
  },
  {
    "name": "Klickitat County Historical Society",
    "address": {
      "streetAddress": "127 W BroadwayGoldendale, WA 98620",
      "mailingAddress": "P. O. Box 86Goldendale, WA 98620"
    },
    "phone": null,
    "website": "https://jeffreylelmer@yahoo.com/",
    "socialLinks": {
      "facebook": null,
      "twitter": null,
      "instagram": null,
      "linkedin": null,
      "youtube": null
    },
    "hours": "Apr 1-Oct 31, 9-5 daily.",
    "museumTypes": [
      "Historical Society"
    ]
  },
  {
    "name": "Maryhill Museum of Art",
    "address": {
      "streetAddress": "35 Maryhill Museum DriveGoldendale, WA 98620",
      "mailingAddress": "Goldendale, WA 98620"
    },
    "phone": null,
    "website": "mailto:maryhill@maryhillmuseum.org",
    "socialLinks": {
      "facebook": null,
      "twitter": null,
      "instagram": null,
      "linkedin": null,
      "youtube": null
    },
    "hours": "March 15 - November 15Daily 9:00 a.m. - 5:00 p.m.",
    "museumTypes": [
      "Art"
    ]
  },
  {
    "name": "Ray E. Powell Museum",
    "address": {
      "streetAddress": "Ray E. Powell Museum313 Division StreetGrandview, WA 98930",
      "mailingAddress": "207 West Second StreetGrandview, WA 98930"
    },
    "phone": "509-882-2070",
    "website": "mailto:carteaga@grandview.wa.us",
    "socialLinks": {
      "facebook": null,
      "twitter": null,
      "instagram": null,
      "linkedin": null,
      "youtube": null
    },
    "hours": null,
    "museumTypes": [
      "History"
    ]
  },
  {
    "name": "Granite Falls Historical Museum",
    "address": {
      "streetAddress": "Granite Falls Historical Museum109 E. Union St.Granite Falls, WA 98252",
      "mailingAddress": "P. O. Box 1414Granite Falls, WA 98252"
    },
    "phone": "360-691-2603",
    "website": "mailto:info@gfhistory.org",
    "socialLinks": {
      "facebook": null,
      "twitter": null,
      "instagram": null,
      "linkedin": null,
      "youtube": null
    },
    "hours": null,
    "museumTypes": []
  },
  {
    "name": "Meerkerk Rhododendron Gardens",
    "address": {
      "streetAddress": "Greenbank, WA 98253",
      "mailingAddress": "P. O. Box 154Greenbank, WA 98253"
    },
    "phone": "360-678-1912",
    "website": "mailto:meerkerk@whidbey.net",
    "socialLinks": {
      "facebook": null,
      "twitter": null,
      "instagram": null,
      "linkedin": null,
      "youtube": null
    },
    "hours": null,
    "museumTypes": []
  },
  {
    "name": "Columbia House/Fort Columbia Center",
    "address": {
      "streetAddress": "Ilwaco, WA 98624",
      "mailingAddress": "P. O. Box 488Ilwaco, WA 98624"
    },
    "phone": null,
    "website": "https://www.parks.wa.gov/",
    "socialLinks": {
      "facebook": null,
      "twitter": null,
      "instagram": null,
      "linkedin": null,
      "youtube": null
    },
    "hours": null,
    "museumTypes": []
  },
  {
    "name": "Fort Canby Lewis & Clark Interpretive Center",
    "address": {
      "streetAddress": "242 Robert Gray DriveIlwaco, WA 98624",
      "mailingAddress": "P. O. Box 488Ilwaco, WA 98624"
    },
    "phone": "360-642-3078",
    "website": "https://lewisandclarktrail.com/section4/wacities/chinook/lewisclarkcenter/",
    "socialLinks": {
      "facebook": null,
      "twitter": null,
      "instagram": null,
      "linkedin": null,
      "youtube": null
    },
    "hours": null,
    "museumTypes": [
      "Park"
    ]
  },
  {
    "name": "Issaquah Historical Society",
    "address": {
      "streetAddress": "165 SE Andrews StIssaquah, WA 98027",
      "mailingAddress": "P.O. Box 695Issaquah, WA 98027"
    },
    "phone": "425-392-3500?",
    "website": "https://www.issaquahhistory.org/",
    "socialLinks": {
      "facebook": null,
      "twitter": null,
      "instagram": null,
      "linkedin": null,
      "youtube": null
    },
    "hours": "Depot:Sat 11-3; Town Hall: Thur & Sat 11-3.",
    "museumTypes": [
      "Historical Society"
    ]
  },
  {
    "name": "Cowlitz County Historical Museum",
    "address": {
      "streetAddress": "405 Allen StreetKelso, WA 98626",
      "mailingAddress": "Kelso, WA 98626"
    },
    "phone": null,
    "website": "https://www.co.cowlitz.wa.us/museum",
    "socialLinks": {
      "facebook": null,
      "twitter": null,
      "instagram": null,
      "linkedin": null,
      "youtube": null
    },
    "hours": "Tue-Sat 9-5, Sun 1-5; closed Mondays & major holidays.",
    "museumTypes": []
  },
  {
    "name": "Greater Kent Historical Society Museum",
    "address": {
      "streetAddress": "855 E Smith StKent, WA 98030",
      "mailingAddress": null
    },
    "phone": "253-854-4330",
    "website": "mailto:ctyofknt@msn.com",
    "socialLinks": {
      "facebook": null,
      "twitter": null,
      "instagram": null,
      "linkedin": null,
      "youtube": null
    },
    "hours": "Wednesday - Saturday 12:00 pm - 4:00 pm",
    "museumTypes": [
      "Historic House"
    ]
  },
  {
    "name": "Kettle Falls Historical Center",
    "address": {
      "streetAddress": "1188 St. Paul Mission Rd.Kettle Falls, WA 99141",
      "mailingAddress": "P. O. Box 498Kettle Falls, WA 99141"
    },
    "phone": "509-738-6964",
    "website": "mailto:kfhc@kettlefallshistoricalcenter.com",
    "socialLinks": {
      "facebook": "https://www.facebook.com/kettlefallshistoricalcenter",
      "twitter": null,
      "instagram": null,
      "linkedin": null,
      "youtube": null
    },
    "hours": "Open Seasonally May 15 to September 15",
    "museumTypes": [
      "Culture",
      "History"
    ]
  },
  {
    "name": "Naval Undersea Museum",
    "address": {
      "streetAddress": "610 Dowell StreetKeyport, WA 98345",
      "mailingAddress": "1103 Hunley RoadSilverdale, WA 98315-1103"
    },
    "phone": "360-396-4148",
    "website": "mailto:NHHCWebmaster@navy.mil",
    "socialLinks": {
      "facebook": null,
      "twitter": null,
      "instagram": null,
      "linkedin": null,
      "youtube": null
    },
    "hours": "June-Sept daily 10-4; Oct-May daily 10-4, closed on Tuesdays.",
    "museumTypes": [
      "History",
      "Library",
      "Military",
      "Science",
      "Specialized"
    ]
  },
  {
    "name": "Kirkland Arts Center",
    "address": {
      "streetAddress": "620 Market StreetKirkland, WA 98033",
      "mailingAddress": "Kirkland, WA 98033"
    },
    "phone": "425-822-7161",
    "website": "mailto:info@kirklandartscenter.org",
    "socialLinks": {
      "facebook": null,
      "twitter": null,
      "instagram": null,
      "linkedin": null,
      "youtube": null
    },
    "hours": null,
    "museumTypes": [
      "Art"
    ]
  },
  {
    "name": "LaConner Quilt Museum",
    "address": {
      "streetAddress": "703 2nd StLa Conner, WA 98257",
      "mailingAddress": "P. O. Box 1270La Conner, WA 98257"
    },
    "phone": "360-466-4288",
    "website": "mailto:director@laconnerquilts.com",
    "socialLinks": {
      "facebook": null,
      "twitter": null,
      "instagram": null,
      "linkedin": null,
      "youtube": null
    },
    "hours": null,
    "museumTypes": [
      "History"
    ]
  },
  {
    "name": "Museum of Northwest Art",
    "address": {
      "streetAddress": "121 1st StLa Conner, WA 98257",
      "mailingAddress": "P. O. Box 969La Conner, WA 98257"
    },
    "phone": "360-466-4078",
    "website": "mailto:marketing@museumofnwart.org",
    "socialLinks": {
      "facebook": null,
      "twitter": null,
      "instagram": null,
      "linkedin": null,
      "youtube": null
    },
    "hours": "Tue-Sun 10-5.",
    "museumTypes": [
      "Art",
      "Culture"
    ]
  },
  {
    "name": "Skagit County Historical Museum",
    "address": {
      "streetAddress": "501 S. 4th StreetLa Conner, WA 98257",
      "mailingAddress": "P. O. Box 818La Conner, WA 98257"
    },
    "phone": "360-466-3365",
    "website": "mailto:Museum@co.skagit.wa.us",
    "socialLinks": {
      "facebook": null,
      "twitter": null,
      "instagram": null,
      "linkedin": null,
      "youtube": null
    },
    "hours": "Tue-Sun 11-5.",
    "museumTypes": [
      "General",
      "History",
      "Historical Society"
    ]
  },
  {
    "name": "Quileute Tribal Council",
    "address": {
      "streetAddress": "330 Ocean Park DrLa Push, WA 98350",
      "mailingAddress": "P. O. Box 279La Push, WA 98350"
    },
    "phone": "800-487-1267",
    "website": "mailto:resort@quileutenation.org",
    "socialLinks": {
      "facebook": null,
      "twitter": null,
      "instagram": null,
      "linkedin": null,
      "youtube": null
    },
    "hours": null,
    "museumTypes": [
      "History"
    ]
  },
  {
    "name": "Lake Stevens Historical Society and Museum",
    "address": {
      "streetAddress": "12301 Northlake Shore DriveLake Stevens, WA 98258",
      "mailingAddress": "P. O. Box 874Lake Stevens, WA 98258"
    },
    "phone": "425-212-3320",
    "website": "mailto:lakestevenshistoricalsociety@gmail.com",
    "socialLinks": {
      "facebook": "https://www.facebook.com/Lakestevenshistoricalmuseum/",
      "twitter": null,
      "instagram": null,
      "linkedin": null,
      "youtube": null
    },
    "hours": null,
    "museumTypes": [
      "History",
      "Historical Society"
    ]
  },
  {
    "name": "South Whidbey Historical Society Museum",
    "address": {
      "streetAddress": "Langley, WA 98260",
      "mailingAddress": "P. O. Box 612Langley, WA 98260"
    },
    "phone": null,
    "website": "https://www.southwhidbeyhistory.org/SWHS/Welcome.html",
    "socialLinks": {
      "facebook": null,
      "twitter": null,
      "instagram": null,
      "linkedin": null,
      "youtube": null
    },
    "hours": null,
    "museumTypes": [
      "Historical Society"
    ]
  },
  {
    "name": "Pacific Coast Cranberry Research Foundation & Cranberry Museum",
    "address": {
      "streetAddress": "2907 Pioneer RoadLong Beach, WA 98631",
      "mailingAddress": "Long Beach, WA 98631"
    },
    "phone": "360-642-5553",
    "website": "mailto:cranberries@willapabay.org",
    "socialLinks": {
      "facebook": null,
      "twitter": null,
      "instagram": null,
      "linkedin": null,
      "youtube": null
    },
    "hours": null,
    "museumTypes": [
      "History"
    ]
  },
  {
    "name": "Lynden Pioneer Museum",
    "address": {
      "streetAddress": "217 West Front StreetLynden, WA 98264",
      "mailingAddress": "Lynden, WA 98264"
    },
    "phone": "360-354-3675",
    "website": "mailto:troy@lyndenpioneermuseum.com",
    "socialLinks": {
      "facebook": "https://www.facebook.com/pages/Lynden-WA/Lynden-Pioneer-Museum/38506439789",
      "twitter": "https://www.twitter.com/lyndenmuseum",
      "instagram": null,
      "linkedin": null,
      "youtube": null
    },
    "hours": null,
    "museumTypes": [
      "History"
    ]
  },
  {
    "name": "Alderwood Manor Heritage Association",
    "address": {
      "streetAddress": "19921 Poplar WayLynnwood, WA 98036",
      "mailingAddress": "P.O. Box 2206Lynnwood, WA 98036"
    },
    "phone": "425-775-4694",
    "website": "mailto:info@alderwood.org",
    "socialLinks": {
      "facebook": null,
      "twitter": null,
      "instagram": null,
      "linkedin": null,
      "youtube": null
    },
    "hours": null,
    "museumTypes": []
  },
  {
    "name": "Maple Valley Historical Society",
    "address": {
      "streetAddress": "Maple Valley, WA 98038",
      "mailingAddress": "P.O. Box 123Maple Valley, WA 98038"
    },
    "phone": "425-432-3470",
    "website": "mailto:pilgrim.dskc@gmail.com",
    "socialLinks": {
      "facebook": null,
      "twitter": null,
      "instagram": null,
      "linkedin": null,
      "youtube": null
    },
    "hours": null,
    "museumTypes": [
      "Historical Society"
    ]
  },
  {
    "name": "Marysville Historical Society",
    "address": {
      "streetAddress": "6805 Armar RoadMarysville, WA 98270",
      "mailingAddress": "P.O. Box 41Marysville, WA 98270"
    },
    "phone": "360-659-3090",
    "website": "mailto:info@marysvillehistory.org",
    "socialLinks": {
      "facebook": null,
      "twitter": null,
      "instagram": null,
      "linkedin": null,
      "youtube": null
    },
    "hours": null,
    "museumTypes": [
      "Historical Society"
    ]
  },
  {
    "name": "McChord Air Museum",
    "address": {
      "streetAddress": "100 Main StreetMcChord AFB, WA 98438",
      "mailingAddress": "P.O. Box 4205McChord AFB, WA 98438"
    },
    "phone": "253-982-2485",
    "website": "mailto:mamfound@mcchordairmuseum.org",
    "socialLinks": {
      "facebook": null,
      "twitter": null,
      "instagram": null,
      "linkedin": null,
      "youtube": null
    },
    "hours": null,
    "museumTypes": [
      "History"
    ]
  },
  {
    "name": "McCleary Museum and Heritage Center",
    "address": {
      "streetAddress": "426 S 3rd StreetMcCleary, WA 98557",
      "mailingAddress": "P O Box 554McCleary, WA 98557"
    },
    "phone": "360-495-4569",
    "website": "mailto:McCleary.museum@gmail.com",
    "socialLinks": {
      "facebook": "https://www.facebook.com/McClearyMuseum/",
      "twitter": null,
      "instagram": null,
      "linkedin": null,
      "youtube": null
    },
    "hours": null,
    "museumTypes": [
      "History",
      "Historical Society"
    ]
  },
  {
    "name": "Gardner Caves/Crawford",
    "address": {
      "streetAddress": "N 26107 Mt. Spokane Park Dr.Mead, WA 99021",
      "mailingAddress": "Mead, WA 99021"
    },
    "phone": null,
    "website": "https://www.parks.wa.gov/",
    "socialLinks": {
      "facebook": null,
      "twitter": null,
      "instagram": null,
      "linkedin": null,
      "youtube": null
    },
    "hours": null,
    "museumTypes": [
      "History"
    ]
  },
  {
    "name": "Mercer Island Historical Society",
    "address": {
      "streetAddress": "9611 SE 36th STMercer Island, WA 98040",
      "mailingAddress": "PO Box 111Mercer Island, WA 98040"
    },
    "phone": "206-236-3274",
    "website": "https://www.mihistory.org/",
    "socialLinks": {
      "facebook": null,
      "twitter": null,
      "instagram": null,
      "linkedin": null,
      "youtube": null
    },
    "hours": null,
    "museumTypes": [
      "Historical Society"
    ]
  },
  {
    "name": "Boundary Dam Visitor Gallery",
    "address": {
      "streetAddress": "Metaline Falls, WA 99153",
      "mailingAddress": "P. O. Box 219Metaline Falls, WA 99153"
    },
    "phone": null,
    "website": "https://www.seattle.gov/light/tours/boundary/",
    "socialLinks": {
      "facebook": null,
      "twitter": null,
      "instagram": null,
      "linkedin": null,
      "youtube": null
    },
    "hours": null,
    "museumTypes": []
  },
  {
    "name": "Monroe Historical Society",
    "address": {
      "streetAddress": "207 E. MainMonroe, WA 98272",
      "mailingAddress": "P. O. Box 1044Monroe, WA 98272"
    },
    "phone": "360-217-7223",
    "website": "mailto:webmaster@monroehistoricalsociety.org",
    "socialLinks": {
      "facebook": null,
      "twitter": null,
      "instagram": null,
      "linkedin": null,
      "youtube": null
    },
    "hours": "Sat 11-3.",
    "museumTypes": [
      "Historical Society"
    ]
  }
]