[
  {
    "name": "Choctaw County Historical Society",
    "address": {
      "streetAddress": "307 North B StreetHugo, OK 74743",
      "mailingAddress": "PO Box 577Hugo, OK 74743"
    },
    "phone": "580-326-6630",
    "website": "mailto:friscodepot@live.com",
    "socialLinks": {
      "facebook": null,
      "twitter": null,
      "instagram": null,
      "linkedin": null,
      "youtube": null
    },
    "hours": null,
    "museumTypes": [
      "Culture",
      "History",
      "Historic House",
      "Historical Society"
    ]
  },
  {
    "name": "Museum of the Red River",
    "address": {
      "streetAddress": "812 E Lincoln RoadIdabel, OK 74745",
      "mailingAddress": null
    },
    "phone": "580-286-3616",
    "website": "https://www.museumoftheredriver.org/",
    "socialLinks": {
      "facebook": null,
      "twitter": null,
      "instagram": null,
      "linkedin": null,
      "youtube": null
    },
    "hours": null,
    "museumTypes": []
  },
  {
    "name": "McCurtain County Historical Society",
    "address": {
      "streetAddress": "302 SE AdamsIdabel, OK 74745",
      "mailingAddress": null
    },
    "phone": "580-212-3639",
    "website": "mailto:idabel_director@yahoo.com",
    "socialLinks": {
      "facebook": null,
      "twitter": null,
      "instagram": null,
      "linkedin": null,
      "youtube": null
    },
    "hours": null,
    "museumTypes": [
      "General",
      "History",
      "Historic House",
      "Historical Society"
    ]
  },
  {
    "name": "Shawnee Mission Church",
    "address": {
      "streetAddress": "Highland & Broadway StreetShawnee, OK 74801",
      "mailingAddress": null
    },
    "phone": null,
    "website": "mailto:pottcounty@gmail.com",
    "socialLinks": {
      "facebook": null,
      "twitter": null,
      "instagram": null,
      "linkedin": null,
      "youtube": null
    },
    "hours": null,
    "museumTypes": [
      "Church"
    ]
  },
  {
    "name": "Oklahoma Baptist University Archives",
    "address": {
      "streetAddress": "500 W UniversityShawnee, OK 74804",
      "mailingAddress": null
    },
    "phone": "800-654-3285",
    "website": "https://www.okbu.edu/",
    "socialLinks": {
      "facebook": null,
      "twitter": null,
      "instagram": null,
      "linkedin": null,
      "youtube": null
    },
    "hours": null,
    "museumTypes": [
      "University"
    ]
  },
  {
    "name": "Mabee-Gerrer Museum of Art",
    "address": {
      "streetAddress": "1900 W MacArthurShawnee, OK 74804",
      "mailingAddress": null
    },
    "phone": "405-878-5300",
    "website": "mailto:dfpollei@mgmoa.org",
    "socialLinks": {
      "facebook": null,
      "twitter": null,
      "instagram": null,
      "linkedin": null,
      "youtube": null
    },
    "hours": null,
    "museumTypes": [
      "Art"
    ]
  },
  {
    "name": "Santa Fe Depot Museum",
    "address": {
      "streetAddress": "Shawnee, OK 74801",
      "mailingAddress": "PO Box 114Shawnee, OK 74802"
    },
    "phone": null,
    "website": "https://www.santafedepotmuseum.org/",
    "socialLinks": {
      "facebook": null,
      "twitter": null,
      "instagram": null,
      "linkedin": null,
      "youtube": null
    },
    "hours": null,
    "museumTypes": [
      "History"
    ]
  },
  {
    "name": "Seminole Historical Society",
    "address": {
      "streetAddress": "Seminole, OK 74868",
      "mailingAddress": "PO Box 202Seminole, OK 74818"
    },
    "phone": "405-382-1500",
    "website": "https://www.seminoleoklahoma.com/museum/",
    "socialLinks": {
      "facebook": null,
      "twitter": null,
      "instagram": null,
      "linkedin": null,
      "youtube": null
    },
    "hours": null,
    "museumTypes": [
      "Historical Society"
    ]
  },
  {
    "name": "Jasmine Moran Children's Museum",
    "address": {
      "streetAddress": "1714 Highway 9 WestSeminole, OK 74818",
      "mailingAddress": "PO Box 1828Seminole, OK 74818"
    },
    "phone": "405-382-0950",
    "website": "https://www.jasminemoran.com/",
    "socialLinks": {
      "facebook": null,
      "twitter": null,
      "instagram": null,
      "linkedin": null,
      "youtube": null
    },
    "hours": null,
    "museumTypes": [
      "Children's"
    ]
  },
  {
    "name": "Ada Arts & Heritage Center",
    "address": {
      "streetAddress": "400 S RennieAda, OK 74820",
      "mailingAddress": null
    },
    "phone": "580-332-7302",
    "website": "mailto:adaarts_heritage@yahoo.com",
    "socialLinks": {
      "facebook": null,
      "twitter": null,
      "instagram": null,
      "linkedin": null,
      "youtube": null
    },
    "hours": null,
    "museumTypes": [
      "Art",
      "Culture"
    ]
  },
  {
    "name": "Lincoln County Hist Soc & Museum of Pioneer Hist",
    "address": {
      "streetAddress": "719 ManvelChandler, OK 74834",
      "mailingAddress": null
    },
    "phone": "405-258-2425",
    "website": "mailto:lincolncountyhs@sbcglobal.net",
    "socialLinks": {
      "facebook": null,
      "twitter": null,
      "instagram": null,
      "linkedin": null,
      "youtube": null
    },
    "hours": null,
    "museumTypes": []
  },
  {
    "name": "Peter Conser Historic Home",
    "address": {
      "streetAddress": "47114 Conser Creek RoadHeavener, OK 74937",
      "mailingAddress": null
    },
    "phone": "918-653-2493",
    "website": "mailto:peterconser@okhistory.org",
    "socialLinks": {
      "facebook": "https://www.facebook.com/pages/Oklahoma-History-Center/45949710786",
      "twitter": "https://www.twitter.com/okhistory",
      "instagram": null,
      "linkedin": null,
      "youtube": null
    },
    "hours": null,
    "museumTypes": [
      "Culture",
      "History",
      "Historic House",
      "Historical Society"
    ]
  },
  {
    "name": "Overstreet-Kerr Historical Farm",
    "address": {
      "streetAddress": "Rt 2 Box 693Keota, OK 74941",
      "mailingAddress": null
    },
    "phone": null,
    "website": "https://kerrcenter.com/overstreet/",
    "socialLinks": {
      "facebook": null,
      "twitter": null,
      "instagram": null,
      "linkedin": null,
      "youtube": null
    },
    "hours": null,
    "museumTypes": []
  },
  {
    "name": "Fourteen Flags Museum",
    "address": {
      "streetAddress": "Rt 1 Box 103ASallisaw, OK 74955",
      "mailingAddress": null
    },
    "phone": null,
    "website": "https://www.exploresouthernhistory.com/sallisawmuseum.html",
    "socialLinks": {
      "facebook": null,
      "twitter": null,
      "instagram": null,
      "linkedin": null,
      "youtube": null
    },
    "hours": null,
    "museumTypes": []
  },
  {
    "name": "Spiro Mounds Archaeological Center",
    "address": {
      "streetAddress": "Rt 2 Box 339AASpiro, OK 74959",
      "mailingAddress": null
    },
    "phone": null,
    "website": "https://www.exploresouthernhistory.com/SpiroMounds1.html",
    "socialLinks": {
      "facebook": null,
      "twitter": null,
      "instagram": null,
      "linkedin": null,
      "youtube": null
    },
    "hours": null,
    "museumTypes": []
  },
  {
    "name": "COMPAS",
    "address": {
      "streetAddress": "75 Fifth Street West, Suite 304Saint Paul, MN 55102",
      "mailingAddress": "Saint Paul, MN 55102"
    },
    "phone": "651-292-3249",
    "website": "mailto:bob@compas.org",
    "socialLinks": {
      "facebook": null,
      "twitter": null,
      "instagram": null,
      "linkedin": null,
      "youtube": null
    },
    "hours": null,
    "museumTypes": []
  },
  {
    "name": "Bell Museum of Natural History",
    "address": {
      "streetAddress": "10 CHURCH ST SEMinneapolis, MN 55455",
      "mailingAddress": null
    },
    "phone": "612-624-7083",
    "website": "mailto:info@bellmuseum.org",
    "socialLinks": {
      "facebook": null,
      "twitter": null,
      "instagram": null,
      "linkedin": null,
      "youtube": null
    },
    "hours": null,
    "museumTypes": [
      "Natural History"
    ]
  },
  {
    "name": "Golden Valley Historical Society",
    "address": {
      "streetAddress": "7800 GOLDEN VALLEY RDMinneapolis, MN 55427",
      "mailingAddress": null
    },
    "phone": "763-588-8578",
    "website": "mailto:maryanddon3030@aol.com",
    "socialLinks": {
      "facebook": null,
      "twitter": null,
      "instagram": null,
      "linkedin": null,
      "youtube": null
    },
    "hours": null,
    "museumTypes": [
      "Historical Society"
    ]
  },
  {
    "name": "Science Museum of Minnesota",
    "address": {
      "streetAddress": "120 West Kellogg BoulevardSaint Paul, MN 55102",
      "mailingAddress": "120 W. Kellogg Blvd.Saint Paul, MN 55102"
    },
    "phone": "651-221-9444",
    "website": "mailto:info@smm.org",
    "socialLinks": {
      "facebook": "https://www.facebook.com/sciencemuseum",
      "twitter": "https://www.twitter.com/sciencemuseummn",
      "instagram": null,
      "linkedin": null,
      "youtube": "https://www.youtube.com/sciencemuseummn"
    },
    "hours": "www.smm.org/hours",
    "museumTypes": [
      "History",
      "Natural History",
      "Science",
      "Specialized"
    ]
  },
  {
    "name": "Missouri Historical Society",
    "address": {
      "streetAddress": "5700 Lindell BlvdSt. Louis, MO 63112",
      "mailingAddress": null
    },
    "phone": "314-454-3100",
    "website": "mailto:join@mohistory.org",
    "socialLinks": {
      "facebook": null,
      "twitter": null,
      "instagram": null,
      "linkedin": null,
      "youtube": null
    },
    "hours": null,
    "museumTypes": [
      "Culture",
      "General",
      "History",
      "Historic House",
      "Historical Society"
    ]
  },
  {
    "name": "Minnesota Veterinary Medicine Museum",
    "address": {
      "streetAddress": "101 Bridgepoint Way, Suite 100Saint Paul, MN 55075",
      "mailingAddress": "Saint Paul, MN 55075"
    },
    "phone": "651-645-7533",
    "website": "mailto:info@mvma.org",
    "socialLinks": {
      "facebook": null,
      "twitter": null,
      "instagram": null,
      "linkedin": null,
      "youtube": null
    },
    "hours": null,
    "museumTypes": [
      "Science",
      "Specialized"
    ]
  },
  {
    "name": "Belwin Outdoor Education Lab",
    "address": {
      "streetAddress": "1553 STAGECOACH TRL SAfton, MN 55001",
      "mailingAddress": null
    },
    "phone": "651-436-5243",
    "website": "mailto:joshua.leonard@spps.org",
    "socialLinks": {
      "facebook": null,
      "twitter": null,
      "instagram": null,
      "linkedin": null,
      "youtube": null
    },
    "hours": null,
    "museumTypes": []
  },
  {
    "name": "Dakota City Heritage Village",
    "address": {
      "streetAddress": "4008 220th St WFarmington, MN 55024",
      "mailingAddress": "PO BOX 73Farmington, MN 55024"
    },
    "phone": "651-460-8050",
    "website": "mailto:info@dakotacity.org",
    "socialLinks": {
      "facebook": null,
      "twitter": null,
      "instagram": null,
      "linkedin": null,
      "youtube": null
    },
    "hours": "By appointment only due to being staffed by volunteers.",
    "museumTypes": [
      "General",
      "History"
    ]
  },
  {
    "name": "Museum Services, INC",
    "address": {
      "streetAddress": "2921 COMO AVE SEMinneapolis, MN 55414",
      "mailingAddress": null
    },
    "phone": "612-378-1189",
    "website": "mailto:info@museumservices.org",
    "socialLinks": {
      "facebook": null,
      "twitter": null,
      "instagram": null,
      "linkedin": null,
      "youtube": null
    },
    "hours": null,
    "museumTypes": []
  },
  {
    "name": "Cokato Historical Society",
    "address": {
      "streetAddress": "175 W 4th StreetCollegeville, MN 56321",
      "mailingAddress": "PO BOX 269Collegeville, MN 56321"
    },
    "phone": "320-286-2427",
    "website": "mailto:cokatomuseum@embarqmail.com",
    "socialLinks": {
      "facebook": null,
      "twitter": null,
      "instagram": null,
      "linkedin": null,
      "youtube": null
    },
    "hours": null,
    "museumTypes": [
      "Historical Society"
    ]
  },
  {
    "name": "Minneapolis Institute of Arts",
    "address": {
      "streetAddress": "2400 Third Avenue SouthMinneapolis, MN 55404",
      "mailingAddress": null
    },
    "phone": "888-642-2787",
    "website": "mailto:mmembers@artsmia.org",
    "socialLinks": {
      "facebook": null,
      "twitter": null,
      "instagram": null,
      "linkedin": null,
      "youtube": null
    },
    "hours": null,
    "museumTypes": [
      "Art"
    ]
  },
  {
    "name": "American Swedish Institute",
    "address": {
      "streetAddress": "2600 PARK AVEMinneapolis, MN 55407",
      "mailingAddress": null
    },
    "phone": "612-871-4907",
    "website": "mailto:info@americanswedishinst.org",
    "socialLinks": {
      "facebook": null,
      "twitter": null,
      "instagram": null,
      "linkedin": null,
      "youtube": null
    },
    "hours": null,
    "museumTypes": [
      "Culture",
      "History",
      "Historic House"
    ]
  },
  {
    "name": "Como Park Zoo and Conservatory",
    "address": {
      "streetAddress": "1225 Estabrook DriveSaint Paul, MN 55103",
      "mailingAddress": "Saint Paul, MN 55103"
    },
    "phone": "651-487-8200",
    "website": "mailto:comomarketing@ci.stpaul.mn.us",
    "socialLinks": {
      "facebook": "https://www.facebook.com/pages/Saint-Paul-MN/Como-Park-Zoo-Conservatory/183604995067",
      "twitter": "https://www.twitter.com/ComoZoo",
      "instagram": null,
      "linkedin": null,
      "youtube": null
    },
    "hours": null,
    "museumTypes": [
      "Zoo"
    ]
  },
  {
    "name": "Gammelgarden Museum",
    "address": {
      "streetAddress": "20880 Olinda TrailScandia, MN 55025",
      "mailingAddress": "9885 202ND ST NForest Lake, MN 55025"
    },
    "phone": "651-433-5053",
    "website": "mailto:museum@gammelgardenmuseum.org",
    "socialLinks": {
      "facebook": null,
      "twitter": null,
      "instagram": null,
      "linkedin": null,
      "youtube": null
    },
    "hours": null,
    "museumTypes": [
      "Children's",
      "Culture",
      "History"
    ]
  },
  {
    "name": "St. Louis County Heritage and Arts Center's Historic Union Depot (The Depot)",
    "address": {
      "streetAddress": "506 West Michigan StreetDuluth, MN 55802",
      "mailingAddress": null
    },
    "phone": "218-727-8025",
    "website": "https://www.duluthdepot.org/",
    "socialLinks": {
      "facebook": null,
      "twitter": null,
      "instagram": null,
      "linkedin": null,
      "youtube": null
    },
    "hours": null,
    "museumTypes": [
      "Art"
    ]
  },
  {
    "name": "Twin City Model Railroad Museum",
    "address": {
      "streetAddress": "1021 Bandana Blvd ESaint Paul, MN 55108",
      "mailingAddress": null
    },
    "phone": "651-647-9628",
    "website": "mailto:tcmrm@tcmrm.org",
    "socialLinks": {
      "facebook": null,
      "twitter": null,
      "instagram": null,
      "linkedin": null,
      "youtube": null
    },
    "hours": "Monday: Closed",
    "museumTypes": [
      "Children's",
      "History",
      "Specialized"
    ]
  },
  {
    "name": "Lake Superior Center",
    "address": {
      "streetAddress": "600 South Lake AvenueDuluth, MN 55802",
      "mailingAddress": "PO Box 177Duluth, MN 55804"
    },
    "phone": "218-720-5260",
    "website": "mailto:info@lsmma.com",
    "socialLinks": {
      "facebook": "https://www.facebook.com/pages/Lake-Superior-Marine-Museum-Association/133985483340801?ref=ts",
      "twitter": null,
      "instagram": null,
      "linkedin": null,
      "youtube": null
    },
    "hours": null,
    "museumTypes": []
  },
  {
    "name": "Children's Museum",
    "address": {
      "streetAddress": "10 7TH ST WSaint Paul, MN 55102",
      "mailingAddress": null
    },
    "phone": "651-225-6000",
    "website": "https://www.mcm.org/",
    "socialLinks": {
      "facebook": "https://www.facebook.com/pages/Saint-Paul-MN/Minnesota-Childrens-Museum/20172614992",
      "twitter": "https://www.twitter.com/MNChildMuseum",
      "instagram": null,
      "linkedin": null,
      "youtube": "https://www.youtube.com/user/MCMMuseum"
    },
    "hours": null,
    "museumTypes": [
      "Children's"
    ]
  },
  {
    "name": "Stearns History Museum",
    "address": {
      "streetAddress": "235 33rd Ave SSaint Cloud, MN 56301",
      "mailingAddress": null
    },
    "phone": "320-253-8424",
    "website": "mailto:info@stearns-museum.org",
    "socialLinks": {
      "facebook": null,
      "twitter": null,
      "instagram": null,
      "linkedin": null,
      "youtube": null
    },
    "hours": null,
    "museumTypes": [
      "History"
    ]
  },
  {
    "name": "Murray County Hist Society",
    "address": {
      "streetAddress": "County Fairgrounds2500 28thSlayton, MN 56172",
      "mailingAddress": null
    },
    "phone": "507-836-6148",
    "website": "mailto:CRiley@co.murray.mn.us",
    "socialLinks": {
      "facebook": "https://www.facebook.com/pages/Murray-County-Minnesota/177035265691771",
      "twitter": "https://www.twitter.com/murraycounty",
      "instagram": null,
      "linkedin": null,
      "youtube": null
    },
    "hours": null,
    "museumTypes": []
  },
  {
    "name": "Nicollet County Historical Society",
    "address": {
      "streetAddress": "1851 N MinnesotaSaint Peter, MN 56082",
      "mailingAddress": null
    },
    "phone": "507-934-2160",
    "website": "mailto:museum@nchsmn.org",
    "socialLinks": {
      "facebook": null,
      "twitter": null,
      "instagram": null,
      "linkedin": null,
      "youtube": null
    },
    "hours": null,
    "museumTypes": [
      "Historical Society"
    ]
  },
  {
    "name": "Duluth Children's Museum",
    "address": {
      "streetAddress": "506 W MICHIGAN STDuluth, MN 55802",
      "mailingAddress": null
    },
    "phone": "218-733-7543",
    "website": "mailto:explore@duluthchildrensmuseum.org",
    "socialLinks": {
      "facebook": null,
      "twitter": null,
      "instagram": null,
      "linkedin": null,
      "youtube": null
    },
    "hours": null,
    "museumTypes": [
      "Children's"
    ]
  },
  {
    "name": "State Capitol",
    "address": {
      "streetAddress": "75 CONSTITUTION AVESaint Paul, MN 55155",
      "mailingAddress": null
    },
    "phone": "651-259-3000",
    "website": "mailto:statecapitol@mnhs.org",
    "socialLinks": {
      "facebook": null,
      "twitter": null,
      "instagram": null,
      "linkedin": null,
      "youtube": null
    },
    "hours": null,
    "museumTypes": [
      "History"
    ]
  },
  {
    "name": "Minnesota Children's Museum",
    "address": {
      "streetAddress": "10 West Seventh StreetSaint Paul, MN 55102",
      "mailingAddress": null
    },
    "phone": "651-225-6053",
    "website": "mailto:travelingexhibits@mcm.org",
    "socialLinks": {
      "facebook": "https://www.facebook.com/pages/Minnesota-Childrens-Museum/20172614992",
      "twitter": null,
      "instagram": null,
      "linkedin": null,
      "youtube": null
    },
    "hours": null,
    "museumTypes": [
      "Children's"
    ]
  },
  {
    "name": "Kanabec History Center",
    "address": {
      "streetAddress": "805 West Forest Ave, P.O. Box 113Mora, MN 55051",
      "mailingAddress": null
    },
    "phone": "320-679-1665",
    "website": "mailto:center@kanabechistory.org",
    "socialLinks": {
      "facebook": null,
      "twitter": null,
      "instagram": null,
      "linkedin": null,
      "youtube": null
    },
    "hours": null,
    "museumTypes": []
  },
  {
    "name": "Como Zoological Society",
    "address": {
      "streetAddress": "1225 Estabrook DriveSaint Paul, MN 55103",
      "mailingAddress": null
    },
    "phone": "651-487-8200",
    "website": "mailto:comomarketing@ci.stpaul.mn.us",
    "socialLinks": {
      "facebook": null,
      "twitter": null,
      "instagram": null,
      "linkedin": null,
      "youtube": null
    },
    "hours": null,
    "museumTypes": [
      "Zoo"
    ]
  },
  {
    "name": "St. Louis County Historical Society",
    "address": {
      "streetAddress": "506 W MICHIGAN STDuluth, MN 55802",
      "mailingAddress": null
    },
    "phone": "218-733-7586",
    "website": "mailto:history@thehistorypeople.org",
    "socialLinks": {
      "facebook": null,
      "twitter": null,
      "instagram": null,
      "linkedin": null,
      "youtube": null
    },
    "hours": null,
    "museumTypes": [
      "Historical Society"
    ]
  },
  {
    "name": "Kulture Klub",
    "address": {
      "streetAddress": "41 N. 12th StreetMinneapolis, MN 55403",
      "mailingAddress": null
    },
    "phone": "612-252-1248",
    "website": "mailto:info@kultureklub.org",
    "socialLinks": {
      "facebook": null,
      "twitter": null,
      "instagram": null,
      "linkedin": null,
      "youtube": null
    },
    "hours": null,
    "museumTypes": []
  },
  {
    "name": "Minnetonka Historical Society",
    "address": {
      "streetAddress": "14600 Minnetonka BoulevardMinnetonka, MN 55345",
      "mailingAddress": "C/O City of Minnetonka14600 Minnetonka BoulevardMinnetonka, MN 55345"
    },
    "phone": null,
    "website": "https://www.minnetonka-history.org/",
    "socialLinks": {
      "facebook": null,
      "twitter": null,
      "instagram": null,
      "linkedin": null,
      "youtube": null
    },
    "hours": null,
    "museumTypes": [
      "Historical Society"
    ]
  },
  {
    "name": "Stevens House Museum",
    "address": {
      "streetAddress": "Minneapolis, MN 55417",
      "mailingAddress": "PO BOX 23063Richfield, MN 55423"
    },
    "phone": "612-722-2220",
    "website": "mailto:jhsh@johnhstevenshouse.org",
    "socialLinks": {
      "facebook": null,
      "twitter": null,
      "instagram": null,
      "linkedin": null,
      "youtube": null
    },
    "hours": null,
    "museumTypes": [
      "History"
    ]
  },
  {
    "name": "Forest History Center",
    "address": {
      "streetAddress": "2609 Cty Rd 76Grand Rapids, MN 55744",
      "mailingAddress": null
    },
    "phone": "218-327-4482",
    "website": "mailto:foresthistory@MNHS.ORG",
    "socialLinks": {
      "facebook": null,
      "twitter": null,
      "instagram": null,
      "linkedin": null,
      "youtube": null
    },
    "hours": null,
    "museumTypes": []
  },
  {
    "name": "Crosslake Area Historical Society",
    "address": {
      "streetAddress": "PO BOX 134Crosslake, MN 56442",
      "mailingAddress": null
    },
    "phone": "218-692-5400",
    "website": "https://www.crosslakehistoricalsociety.org/",
    "socialLinks": {
      "facebook": null,
      "twitter": null,
      "instagram": null,
      "linkedin": null,
      "youtube": null
    },
    "hours": null,
    "museumTypes": [
      "Historical Society"
    ]
  },
  {
    "name": "Pine County History Museum & Historical Society",
    "address": {
      "streetAddress": "6333 HC Andersen AlleAskov, MN 55704",
      "mailingAddress": "PO Box 123Askov, MN 55704"
    },
    "phone": "320-838-1607",
    "website": "mailto:pchsnews@msn.com",
    "socialLinks": {
      "facebook": null,
      "twitter": null,
      "instagram": null,
      "linkedin": null,
      "youtube": null
    },
    "hours": "Exhibits open to the public",
    "museumTypes": [
      "Culture",
      "History",
      "Historical Society",
      "Library",
      "Military"
    ]
  },
  {
    "name": "Museum of Minnesota",
    "address": {
      "streetAddress": "4769 Hauge CircleEagan, MN 55122",
      "mailingAddress": "30 10TH ST ESaint Paul, MN 55101"
    },
    "phone": "651-686-0041",
    "website": "mailto:info@MuseumsofMN.com",
    "socialLinks": {
      "facebook": null,
      "twitter": null,
      "instagram": null,
      "linkedin": null,
      "youtube": null
    },
    "hours": null,
    "museumTypes": [
      "History"
    ]
  },
  {
    "name": "Wells Fargo History Museum",
    "address": {
      "streetAddress": "Sixth & Marquette - Wells Fargo Center - Skyway LevelMinneapolis, MN 55479",
      "mailingAddress": "90 S. 7th St. N9305-023Minneapolis, MN 55479"
    },
    "phone": "612-667-4210",
    "website": "https://www.wellsfargohistory.com/",
    "socialLinks": {
      "facebook": null,
      "twitter": null,
      "instagram": null,
      "linkedin": null,
      "youtube": null
    },
    "hours": "Monday - FridayÂ 9:00 am - 5:00 pm",
    "museumTypes": [
      "History"
    ]
  },
  {
    "name": "Bloomington Art Center",
    "address": {
      "streetAddress": "1800 W. Old Shakopee Rd.Bloomington, MN 55431",
      "mailingAddress": "Minneapolis, MN 55431"
    },
    "phone": null,
    "website": "mailto:info@bloomingtonartcenter.com",
    "socialLinks": {
      "facebook": null,
      "twitter": null,
      "instagram": null,
      "linkedin": null,
      "youtube": null
    },
    "hours": null,
    "museumTypes": [
      "Art"
    ]
  },
  {
    "name": "Rochester Art Center",
    "address": {
      "streetAddress": "40 Civic Center Drive SERochester, MN 55904",
      "mailingAddress": "Rochester, MN 55904"
    },
    "phone": "507-282-8629",
    "website": "mailto:info@rochesterartcenter.org",
    "socialLinks": {
      "facebook": null,
      "twitter": null,
      "instagram": null,
      "linkedin": null,
      "youtube": null
    },
    "hours": null,
    "museumTypes": [
      "Art"
    ]
  },
  {
    "name": "US Fish & Wildlife Service",
    "address": {
      "streetAddress": "5600 American Blvd. WestMinneapolis, MN 55406",
      "mailingAddress": "Minneapolis, MN 55406"
    },
    "phone": "612-713-5360",
    "website": "mailto:MidwestNews@fws.gov",
    "socialLinks": {
      "facebook": null,
      "twitter": null,
      "instagram": null,
      "linkedin": null,
      "youtube": null
    },
    "hours": null,
    "museumTypes": [
      "History"
    ]
  },
  {
    "name": "Swift County Historical Society",
    "address": {
      "streetAddress": "2135 Minnesota AvenueBenson, MN 56215",
      "mailingAddress": "Benson, MN 56215"
    },
    "phone": "320-843-4467",
    "website": "mailto:info@swift-museum.org",
    "socialLinks": {
      "facebook": null,
      "twitter": null,
      "instagram": null,
      "linkedin": null,
      "youtube": null
    },
    "hours": null,
    "museumTypes": [
      "Historical Society"
    ]
  },
  {
    "name": "Wargo Nature Center",
    "address": {
      "streetAddress": "7701 Main StreetLino Lakes, MN 55038",
      "mailingAddress": null
    },
    "phone": "651-429-8007",
    "website": "https://www.anokacountyparks.com/facilities/wargo.htm",
    "socialLinks": {
      "facebook": null,
      "twitter": null,
      "instagram": null,
      "linkedin": null,
      "youtube": null
    },
    "hours": null,
    "museumTypes": [
      "Nature Centers"
    ]
  },
  {
    "name": "Lake Superior Railroad Museum",
    "address": {
      "streetAddress": "506 W MICHIGAN STDuluth, MN 55802",
      "mailingAddress": null
    },
    "phone": "218-727-8025",
    "website": "mailto:info@lsrm.org",
    "socialLinks": {
      "facebook": null,
      "twitter": null,
      "instagram": null,
      "linkedin": null,
      "youtube": null
    },
    "hours": null,
    "museumTypes": []
  },
  {
    "name": "The Raptor Center",
    "address": {
      "streetAddress": "1920 FITCH AVESaint Paul, MN 55108",
      "mailingAddress": null
    },
    "phone": "612-624-4745",
    "website": "mailto:raptor@umn.edu",
    "socialLinks": {
      "facebook": null,
      "twitter": null,
      "instagram": null,
      "linkedin": null,
      "youtube": null
    },
    "hours": null,
    "museumTypes": []
  },
  {
    "name": "Northfield Historical Society",
    "address": {
      "streetAddress": "408 Division StreetNorthfield, MN 55057",
      "mailingAddress": null
    },
    "phone": "507-645-9268",
    "website": "https://www.northfieldhistory.org/",
    "socialLinks": {
      "facebook": null,
      "twitter": null,
      "instagram": null,
      "linkedin": null,
      "youtube": null
    },
    "hours": null,
    "museumTypes": [
      "Historical Society"
    ]
  }
]