[
  {
    "name": "AMF Bowling Center",
    "address": {
      "streetAddress": "719 Opelika Road",
      "locality": "Auburn",
      "region": "Alabama",
      "postalCode": "36830"
    },
    "phone": "334-887-6573",
    "hours": "",
    "services": "Bowling",
    "url": "https://www.bowling-alleys.com/amf-bowling-center-in-auburn-al-36830-020/"
  },
  {
    "name": "AMF Bowling Center",
    "address": {
      "streetAddress": "2006 Country Club Avenue Northwest",
      "locality": "Huntsville",
      "region": "Alabama",
      "postalCode": "35816"
    },
    "phone": "256-534-8438",
    "hours": "",
    "services": "Bowling",
    "url": "https://www.bowling-alleys.com/amf-bowling-center-in-huntsville-al-35816-220/"
  },
  {
    "name": "AMF River City Lanes",
    "address": {
      "streetAddress": "3117 Highway 31 South",
      "locality": "Decatur",
      "region": "Alabama",
      "postalCode": "35601"
    },
    "phone": "256-353-3162",
    "hours": "Mon: 14:00:00 - 23:00:00; Tue: 14:00:00 - 23:00:00; Wed: 12:00:00 - 22:00:00; Thu: 14:00:00 - 02:00:00; Fri: 14:00:00 - 01:00:00; Sat: 12:00:00 - 01:00:00; Sun: 13:00:00 - 22:00:00",
    "services": "Arcades, Bowling, Food & Dining",
    "url": "https://www.bowling-alleys.com/amf-river-city-lanes-in-decatur-al-35601-a7a/"
  },
  {
    "name": "Amf-Parkway Lanes-Huntsville",
    "address": {
      "streetAddress": "2309 Memorial Parkways Southwest",
      "locality": "Huntsville",
      "region": "Alabama",
      "postalCode": "35801"
    },
    "phone": "256-534-1588",
    "hours": "",
    "services": "Bowling",
    "url": "https://www.bowling-alleys.com/amf-parkway-lanes-huntsville-in-huntsville-al-35801-26b/"
  },
  {
    "name": "Bama Lanes",
    "address": {
      "streetAddress": "9524 Bent Brook Drive",
      "locality": "Montgomery",
      "region": "Alabama",
      "postalCode": "36117"
    },
    "phone": "334-272-5423",
    "hours": "",
    "services": "Bowling",
    "url": "https://www.bowling-alleys.com/bama-lanes-in-montgomery-al-36117-b4a/"
  },
  {
    "name": "Brunswick Zone Montgomery Lanes",
    "address": {
      "streetAddress": "1661 Eastern Boulevard",
      "locality": "Montgomery",
      "region": "Alabama",
      "postalCode": "36117"
    },
    "phone": "334-819-7171",
    "hours": "Mon: 11:00:00 - 01:00:00; Tue: 11:00:00 - 00:00:00; Wed: 09:00:00 - 00:00:00; Thu: 11:00:00 - 00:00:00; Fri: 09:00:00 - 02:00:00; Sat: 09:00:00 - 02:00:00; Sun: 12:00:00 - 23:00:00",
    "services": "Arcades, Bowling, Food & Dining",
    "url": "https://www.bowling-alleys.com/brunswick-zone-montgomery-lanes-in-montgomery-al-36117-ab9/"
  },
  {
    "name": "Changing Lanes Fixing Gears",
    "address": {
      "streetAddress": "000 Mobile Street",
      "locality": "Mobile",
      "region": "Alabama",
      "postalCode": "36607"
    },
    "phone": "251-455-1375",
    "hours": "",
    "services": "Bowling, Bowling",
    "url": "https://www.bowling-alleys.com/changing-lanes-fixing-gears-in-mobile-al-36607-e79/"
  },
  {
    "name": "Mountain Lanes",
    "address": {
      "streetAddress": "240 Mccurdy Avenue North",
      "locality": "Rainsville",
      "region": "Alabama",
      "postalCode": "35986"
    },
    "phone": "256-638-1710",
    "hours": "",
    "services": "Bowling",
    "url": "https://www.bowling-alleys.com/mountain-lanes-in-rainsville-al-35986-e3f/"
  },
  {
    "name": "Paradise Lanes",
    "address": {
      "streetAddress": "729 Sutton Bridge Road",
      "locality": "Rainbow",
      "region": "Alabama",
      "postalCode": "35906"
    },
    "phone": "256-413-0300",
    "hours": "",
    "services": "Bowling",
    "url": "https://www.bowling-alleys.com/paradise-lanes-in-rainbow-al-35906-7a0/"
  },
  {
    "name": "Shannon Bowling",
    "address": {
      "streetAddress": "2060 Ray Wyatt Road",
      "locality": "Ashville",
      "region": "Alabama",
      "postalCode": "35953"
    },
    "phone": "205-594-7160",
    "hours": "",
    "services": "Bowling",
    "url": "https://www.bowling-alleys.com/shannon-bowling-in-ashville-al-35953-de5/"
  },
  {
    "name": "Sparetime Trussville",
    "address": {
      "streetAddress": "3600 Roosevelt Boulevard",
      "locality": "Birmingham",
      "region": "Alabama",
      "postalCode": "35235"
    },
    "phone": "205-655-4500",
    "hours": "",
    "services": "Bowling",
    "url": "https://www.bowling-alleys.com/sparetime-trussville-in-birmingham-al-35235-d5d/"
  },
  {
    "name": "Stars And Strikes Family Entertainment Center",
    "address": {
      "streetAddress": "930 Old Monrovia Road Northwest",
      "locality": "Huntsville",
      "region": "Alabama",
      "postalCode": "35806"
    },
    "phone": "256-272-4626",
    "hours": "Mon: 10:00:00 - 00:00:00; Tue: 10:00:00 - 00:00:00; Wed: 10:00:00 - 00:00:00; Thu: 10:00:00 - 00:00:00; Fri: 10:00:00 - 02:00:00; Sat: 09:00:00 - 02:00:00; Sun: 09:00:00 - 00:00:00",
    "services": "American Food, Arcades, Bowling",
    "url": "https://www.bowling-alleys.com/stars-and-strikes-family-entertainment-center-in-huntsville-al-35806-ee1/"
  },
  {
    "name": "A MF Bowling Centers",
    "address": {
      "streetAddress": "2902 West Thunderbird Road",
      "locality": "Phoenix",
      "region": "Arizona",
      "postalCode": "85053"
    },
    "phone": "602-866-0732",
    "hours": "",
    "services": "Bowling",
    "url": "https://www.bowling-alleys.com/a-mf-bowling-centers-in-phoenix-az-85053-89b/"
  },
  {
    "name": "AMF Glendale Lanes",
    "address": {
      "streetAddress": "8475 West Olive Avenue",
      "locality": "Peoria",
      "region": "Arizona",
      "postalCode": "85345"
    },
    "phone": "623-847-0352",
    "hours": "Mon 12:00 PM-11:00 PM,Tue 03:00 PM-11:00 PM,Wed-Thu: 12:00 PM-11:00 PM,Fri 03:00 PM-01:00 AM,Sat 09:00 AM-01:00 AM,Sun 10:00 AM-11:00 PM",
    "services": "Bowling",
    "url": "https://www.bowling-alleys.com/amf-glendale-lanes-in-peoria-az-85345-f38/"
  },
  {
    "name": "Antelope Bowling Lanes",
    "address": {
      "streetAddress": "6301 East 2nd Street",
      "locality": "Prescott Valley",
      "region": "Arizona",
      "postalCode": "86314"
    },
    "phone": "928-772-7331",
    "hours": "",
    "services": "Bowling",
    "url": "https://www.bowling-alleys.com/antelope-bowling-lanes-in-prescott-valley-az-86314-834/"
  },
  {
    "name": "Bowlero Christown",
    "address": {
      "streetAddress": "1919 West Bethany Home Road",
      "locality": "Phoenix",
      "region": "Arizona",
      "postalCode": "85015"
    },
    "phone": "602-249-1715",
    "hours": "",
    "services": "Bowling",
    "url": "https://www.bowling-alleys.com/bowlero-christown-in-phoenix-az-85015-985/"
  },
  {
    "name": "Bowlero Gilbert",
    "address": {
      "streetAddress": "1160 South Gilbert Road",
      "locality": "Gilbert",
      "region": "Arizona",
      "postalCode": "85296"
    },
    "phone": "480-813-2695",
    "hours": "",
    "services": "Bowling",
    "url": "https://www.bowling-alleys.com/bowlero-gilbert-in-gilbert-az-85296-640/"
  },
  {
    "name": "Bowling Dynamics",
    "address": {
      "streetAddress": "6025 North 27th Avenue",
      "locality": "Phoenix",
      "region": "Arizona",
      "postalCode": "85017"
    },
    "phone": "602-246-2668",
    "hours": "Mon-Fri: 10:00 AM-06:00 PM,Sat 10:00 AM-04:00 PM,Sun 10:00 AM-02:00 PM",
    "services": "Bowling, Bowling",
    "url": "https://www.bowling-alleys.com/bowling-dynamics-in-phoenix-az-85017-91a/"
  },
  {
    "name": "Bowlmor Lanes",
    "address": {
      "streetAddress": "7300 East Thomas Road",
      "locality": "Scottsdale",
      "region": "Arizona",
      "postalCode": "85251"
    },
    "phone": "480-946-5308",
    "hours": "",
    "services": "Bowling",
    "url": "https://www.bowling-alleys.com/bowlmor-lanes-in-scottsdale-az-85251-3ff/"
  },
  {
    "name": "Brunswick Zone",
    "address": {
      "streetAddress": "1425 North Central Avenue",
      "locality": "Avondale",
      "region": "Arizona",
      "postalCode": "85323"
    },
    "phone": "623-932-3388",
    "hours": "",
    "services": "Bowling",
    "url": "https://www.bowling-alleys.com/brunswick-zone-in-avondale-az-85323-653/"
  },
  {
    "name": "Brunswick Zone Via Linda Lanes",
    "address": {
      "streetAddress": "9027 East Viaduct Linda",
      "locality": "Scottsdale",
      "region": "Arizona",
      "postalCode": "85258"
    },
    "phone": "480-860-1363",
    "hours": "Mon 11:00 AM-12:00 AM,Tue 10:00 AM-12:00 AM,Wed-Thu: 11:00 AM-12:00 AM,Fri-Sat: 11:00 AM-01:00 AM,Sun 11:00 AM-12:00 AM",
    "services": "Bowling, Food & Dining, Video Arcades",
    "url": "https://www.bowling-alleys.com/brunswick-zone-via-linda-lanes-in-scottsdale-az-85258-dc3/"
  },
  {
    "name": "Jake's Unlimited",
    "address": {
      "streetAddress": "1830 East Baseline Road",
      "locality": "Mesa",
      "region": "Arizona",
      "postalCode": "85204"
    },
    "phone": "480-926-7499",
    "hours": "",
    "services": "Arcades, Bowling, Video Arcades",
    "url": "https://www.bowling-alleys.com/jakes-unlimited-in-mesa-az-85204-560/"
  },
  {
    "name": "Let It Roll Bowl & Entertainment",
    "address": {
      "streetAddress": "8925 North 12th Street",
      "locality": "Phoenix",
      "region": "Arizona",
      "postalCode": "85020"
    },
    "phone": "602-944-4401",
    "hours": "Mon 02:00 PM-10:00 PM,Tue 12:00 PM-10:00 PM,Wed 10:00 AM-10:00 PM,Thu 09:00 AM-10:00 PM,Fri 11:00 AM-01:00 AM,Sat 10:30 AM-01:00 AM,Sun 09:30 AM-10:00 PM",
    "services": "Bowling",
    "url": "https://www.bowling-alleys.com/let-it-roll-bowl-entertainment-in-phoenix-az-85020-749/"
  },
  {
    "name": "Lucky Strike Phoenix",
    "address": {
      "streetAddress": "50 West Jefferson Street # 240",
      "locality": "Phoenix",
      "region": "Arizona",
      "postalCode": "85003"
    },
    "phone": "602-732-5490",
    "hours": "",
    "services": "Bowling",
    "url": "https://www.bowling-alleys.com/lucky-strike-phoenix-in-phoenix-az-85003-178/"
  },
  {
    "name": "Main Event Entertainment",
    "address": {
      "streetAddress": "1735 South San Tan Village Parkways",
      "locality": "Gilbert",
      "region": "Arizona",
      "postalCode": "85295"
    },
    "phone": "480-462-2200",
    "hours": "",
    "services": "Bowling",
    "url": "https://www.bowling-alleys.com/main-event-entertainment-in-gilbert-az-85295-e10/"
  },
  {
    "name": "Main Event Entertainment",
    "address": {
      "streetAddress": "10315 West Mcdowell Road",
      "locality": "Avondale",
      "region": "Arizona",
      "postalCode": "85392"
    },
    "phone": "623-936-5300",
    "hours": "",
    "services": "Bowling",
    "url": "https://www.bowling-alleys.com/main-event-entertainment-in-avondale-az-85392-daa/"
  },
  {
    "name": "Notebowl",
    "address": {
      "streetAddress": "1475 North Scottsdale Road # 200",
      "locality": "Scottsdale",
      "region": "Arizona",
      "postalCode": "85257"
    },
    "phone": "480-900-8933",
    "hours": "",
    "services": "Bowling",
    "url": "https://www.bowling-alleys.com/notebowl-in-scottsdale-az-85257-8b2/"
  },
  {
    "name": "Hijinx Game Night Reinvented",
    "address": {
      "streetAddress": "3102 Shelby Drive",
      "locality": "Jonesboro",
      "region": "Arkansas",
      "postalCode": "72404"
    },
    "phone": "870-972-5270",
    "hours": "",
    "services": "Bowling",
    "url": "https://www.bowling-alleys.com/hijinx-game-night-reinvented-in-jonesboro-ar-72404-18f/"
  },
  {
    "name": "Monticello Lanes",
    "address": {
      "streetAddress": "267 Highway 425 North # 2",
      "locality": "Monticello",
      "region": "Arkansas",
      "postalCode": "71655"
    },
    "phone": "870-367-5393",
    "hours": "",
    "services": "Bowling",
    "url": "https://www.bowling-alleys.com/monticello-lanes-in-monticello-ar-71655-086/"
  },
  {
    "name": "Six M Corporation",
    "address": {
      "streetAddress": "2013 Falls Boulevard North",
      "locality": "Wynne",
      "region": "Arkansas",
      "postalCode": "72396"
    },
    "phone": "870-238-9992",
    "hours": "",
    "services": "Bowling",
    "url": "https://www.bowling-alleys.com/six-m-corporation-in-wynne-ar-72396-929/"
  },
  {
    "name": "AMF Bowling Center",
    "address": {
      "streetAddress": "525 Main Street",
      "locality": "East Haven",
      "region": "Connecticut",
      "postalCode": "06512"
    },
    "phone": "203-467-6351",
    "hours": "",
    "services": "Bowling",
    "url": "https://www.bowling-alleys.com/amf-bowling-center-in-east-haven-ct-06512-476/"
  },
  {
    "name": "Amf Bowling Centers",
    "address": {
      "streetAddress": "748 Silver Lane",
      "locality": "East Hartford",
      "region": "Connecticut",
      "postalCode": "06118"
    },
    "phone": "860-569-2990",
    "hours": "",
    "services": "Bowling",
    "url": "https://www.bowling-alleys.com/amf-bowling-centers-in-east-hartford-ct-06118-c04/"
  },
  {
    "name": "Bowlero Milford",
    "address": {
      "streetAddress": "1717 Boston Post Road",
      "locality": "Milford",
      "region": "Connecticut",
      "postalCode": "06460"
    },
    "phone": "203-878-4658",
    "hours": "",
    "services": "Bowling",
    "url": "https://www.bowling-alleys.com/bowlero-milford-in-milford-ct-06460-5ef/"
  },
  {
    "name": "Bowlmor Lanes",
    "address": {
      "streetAddress": "701 Connecticut Avenue",
      "locality": "Norwalk",
      "region": "Connecticut",
      "postalCode": "06854"
    },
    "phone": "203-838-7501",
    "hours": "",
    "services": "Bowling",
    "url": "https://www.bowling-alleys.com/bowlmor-lanes-in-norwalk-ct-06854-78c/"
  },
  {
    "name": "Bowlmor Norwalk",
    "address": {
      "streetAddress": "701 Connecticut Avenue",
      "locality": "Norwalk",
      "region": "Connecticut",
      "postalCode": "06854"
    },
    "phone": "203-838-7501",
    "hours": "",
    "services": "Bowling",
    "url": "https://www.bowling-alleys.com/bowlmor-norwalk-in-norwalk-ct-06854-fed/"
  },
  {
    "name": "Revolutions",
    "address": {
      "streetAddress": "100 Bidwell Road",
      "locality": "South Windsor",
      "region": "Connecticut",
      "postalCode": "06074"
    },
    "phone": "860-282-2695",
    "hours": "",
    "services": "Bowling",
    "url": "https://www.bowling-alleys.com/revolutions-in-south-windsor-ct-06074-1a6/"
  },
  {
    "name": "Shooter's Cafe",
    "address": {
      "streetAddress": "1304 South Main Street",
      "locality": "Plantsville",
      "region": "Connecticut",
      "postalCode": "06479"
    },
    "phone": "860-628-4553",
    "hours": "",
    "services": "Bowling",
    "url": "https://www.bowling-alleys.com/shooters-cafe-in-plantsville-ct-06479-2bc/"
  },
  {
    "name": "Spare Time Family Fun Center",
    "address": {
      "streetAddress": "27 Kings Highway",
      "locality": "Groton",
      "region": "Connecticut",
      "postalCode": "06340"
    },
    "phone": "860-445-6500",
    "hours": "",
    "services": "Bowling",
    "url": "https://www.bowling-alleys.com/spare-time-family-fun-center-in-groton-ct-06340-718/"
  },
  {
    "name": "First State Lanes",
    "address": {
      "streetAddress": "1 State Street",
      "locality": "Wilmington",
      "region": "Delaware",
      "postalCode": "19804"
    },
    "phone": "302-762-3266",
    "hours": "Mon 05:00 PM-11:00 PM,Tue 09:00 AM-11:00 PM,Wed 09:00 AM-11:30 AM,Thu 09:00 AM-11:00 AM,Fri 09:00 AM-01:30 AM,Sat 09:00 AM-01:30 AM,Sun 09:00 AM-12:00 AM",
    "services": "Amusement Park, Arcades, Bowling",
    "url": "https://www.bowling-alleys.com/first-state-lanes-in-wilmington-de-19804-860/"
  },
  {
    "name": "Lucky Strike Lanes",
    "address": {
      "streetAddress": "701 7th Street Northwest # East",
      "locality": "Washington",
      "region": "District of Columbia",
      "postalCode": "20001"
    },
    "phone": "202-347-1021",
    "hours": "",
    "services": "Bowling",
    "url": "https://www.bowling-alleys.com/lucky-strike-lanes-in-washington-dc-20001-adf/"
  },
  {
    "name": "Lucky Strike Washington, DC",
    "address": {
      "streetAddress": "701 7th Street Northwest Suite East",
      "locality": "Washington",
      "region": "District of Columbia",
      "postalCode": "20001"
    },
    "phone": "202-347-1021",
    "hours": "Mon-Thu: 12:00 PM-01:00 AM,Fri-Sat: 12:00 PM-02:00 AM,Sun 12:00 PM-01:00 AM",
    "services": "Bowling, Bowling Lessons, Food & Dining",
    "url": "https://www.bowling-alleys.com/lucky-strike-washington-dc-in-washington-dc-20001-370/"
  },
  {
    "name": "Pinstripes-Washington",
    "address": {
      "streetAddress": "1064 Wisconsin Avenue Northwest",
      "locality": "Washington",
      "region": "District of Columbia",
      "postalCode": "20007"
    },
    "phone": "202-625-6500",
    "hours": "",
    "services": "Bowling, New American Food",
    "url": "https://www.bowling-alleys.com/pinstripes-washington-in-washington-dc-20007-a4c/"
  },
  {
    "name": "Potomac Lanes Bowling",
    "address": {
      "streetAddress": "315 Mcchord Street Southwest",
      "locality": "Washington",
      "region": "District of Columbia",
      "postalCode": "20032"
    },
    "phone": "202-563-1701",
    "hours": "",
    "services": "Bowling",
    "url": "https://www.bowling-alleys.com/potomac-lanes-bowling-in-washington-dc-20032-0bd/"
  },
  {
    "name": "Big Al's Meridian",
    "address": {
      "streetAddress": "1900 North Eagle Road",
      "locality": "Meridian",
      "region": "Idaho",
      "postalCode": "83646"
    },
    "phone": "208-780-6118",
    "hours": "",
    "services": "Bowling",
    "url": "https://www.bowling-alleys.com/big-als-meridian-in-meridian-id-83646-939/"
  },
  {
    "name": "Challis Lanes",
    "address": {
      "streetAddress": "625 Us-93",
      "locality": "Challis",
      "region": "Idaho",
      "postalCode": "83226"
    },
    "phone": "208-879-4452",
    "hours": "Mon: 10:00:00 - 21:00:00; Tue: 10:00:00 - 21:00:00; Thu: 10:00:00 - 21:00:00; Fri: 10:00:00 - 21:00:00; Sat: 10:00:00 - 22:00:00",
    "services": "Bowling, Burgers",
    "url": "https://www.bowling-alleys.com/challis-lanes-in-challis-id-83226-ad9/"
  },
  {
    "name": "River City Lanes",
    "address": {
      "streetAddress": "925 West Seltice Way",
      "locality": "Post Falls",
      "region": "Idaho",
      "postalCode": "83854"
    },
    "phone": "208-773-7575",
    "hours": "Mon-Tue: 12:00 PM-11:00 PM,Wed 10:00 AM-11:00 PM,Thu 12:00 PM-11:00 PM,Fri-Sat: 12:00 PM-01:00 AM,Sun 12:00 PM-10:00 PM",
    "services": "Bowling, Bowling Equipment Repairs, Bowling Lessons",
    "url": "https://www.bowling-alleys.com/river-city-lanes-in-post-falls-id-83854-76f/"
  },
  {
    "name": "Spare Time Fun Center",
    "address": {
      "streetAddress": "321 West 2nd South",
      "locality": "Soda Springs",
      "region": "Idaho",
      "postalCode": "83276"
    },
    "phone": "208-547-2695",
    "hours": "",
    "services": "Bowling",
    "url": "https://www.bowling-alleys.com/spare-time-fun-center-in-soda-springs-id-83276-68a/"
  },
  {
    "name": "Team Bowladrome Lcc",
    "address": {
      "streetAddress": "220 Eastland Drive",
      "locality": "Twin Falls",
      "region": "Idaho",
      "postalCode": "83301"
    },
    "phone": "208-733-0369",
    "hours": "",
    "services": "Bowling",
    "url": "https://www.bowling-alleys.com/team-bowladrome-lcc-in-twin-falls-id-83301-eb0/"
  },
  {
    "name": "The Bowling Alley",
    "address": {
      "streetAddress": "18 Northwest 1 Street North",
      "locality": "Homedale",
      "region": "Idaho",
      "postalCode": "83628"
    },
    "phone": "208-337-3424",
    "hours": "",
    "services": "Bowling, Food & Dining",
    "url": "https://www.bowling-alleys.com/the-bowling-alley-in-homedale-id-83628-3e5/"
  },
  {
    "name": "Bowl Crystal",
    "address": {
      "streetAddress": "1602 G Avenue",
      "locality": "Grundy Center",
      "region": "Iowa",
      "postalCode": "50638"
    },
    "phone": "319-825-6314",
    "hours": "",
    "services": "Bowling",
    "url": "https://www.bowling-alleys.com/bowl-crystal-in-grundy-center-ia-50638-5ee/"
  },
  {
    "name": "Bowlmor Entertainment Center",
    "address": {
      "streetAddress": "2902 East Kimberly Road",
      "locality": "Davenport",
      "region": "Iowa",
      "postalCode": "52807"
    },
    "phone": "563-344-9800",
    "hours": "",
    "services": "Bowling",
    "url": "https://www.bowling-alleys.com/bowlmor-entertainment-center-in-davenport-ia-52807-8a7/"
  },
  {
    "name": "Buffalo Lanes",
    "address": {
      "streetAddress": "4578 Highway 9",
      "locality": "Buffalo Center",
      "region": "Iowa",
      "postalCode": "50424"
    },
    "phone": "641-562-2611",
    "hours": "",
    "services": "Bowling",
    "url": "https://www.bowling-alleys.com/buffalo-lanes-in-buffalo-center-ia-50424-908/"
  },
  {
    "name": "Corner Lanes",
    "address": {
      "streetAddress": "1801 Circle Drive West",
      "locality": "Spirit Lake",
      "region": "Iowa",
      "postalCode": "51360"
    },
    "phone": "712-336-4418",
    "hours": "",
    "services": "Bowling",
    "url": "https://www.bowling-alleys.com/corner-lanes-in-spirit-lake-ia-51360-fae/"
  },
  {
    "name": "Keystone Telephone Office",
    "address": {
      "streetAddress": "86 Main Street",
      "locality": "Keystone",
      "region": "Iowa",
      "postalCode": "52249"
    },
    "phone": "319-442-3312",
    "hours": "",
    "services": "Bowling",
    "url": "https://www.bowling-alleys.com/keystone-telephone-office-in-keystone-ia-52249-241/"
  },
  {
    "name": "Miller Time Billiards & Bwlng",
    "address": {
      "streetAddress": "2902 East Kimberly Road",
      "locality": "Davenport",
      "region": "Iowa",
      "postalCode": "52807"
    },
    "phone": "563-359-4770",
    "hours": "",
    "services": "Bowling",
    "url": "https://www.bowling-alleys.com/miller-time-billiards-bwlng-in-davenport-ia-52807-e55/"
  },
  {
    "name": "Plaza Lanes Family Sports Complex",
    "address": {
      "streetAddress": "2701 Douglas Avenue",
      "locality": "Des Moines",
      "region": "Iowa",
      "postalCode": "50310"
    },
    "phone": "515-255-1111",
    "hours": "Mon: 11:00:00 - 01:30:00; Tue: 09:00:00 - 00:00:00; Wed: 09:00:00 - 00:00:00; Thu: 09:00:00 - 01:00:00; Fri: 11:00:00 - 02:00:00; Sat: 09:00:00 - 02:00:00; Sun: 09:00:00 - 00:00:00",
    "services": "Amusement Park, Bowling, Food & Dining",
    "url": "https://www.bowling-alleys.com/plaza-lanes-family-sports-complex-in-des-moines-ia-50310-f34/"
  },
  {
    "name": "Rush Lanes",
    "address": {
      "streetAddress": "3828 Stadium Drive",
      "locality": "Sioux",
      "region": "Iowa",
      "postalCode": "51106"
    },
    "phone": "712-252-4545",
    "hours": "Tue: 11:00:00 - 17:00:00},{21:00:00 - 00:00:00; Wed: 11:00:00 - 17:00:00},{21:00:00 - 00:00:00; Thu: 09:00:00 - 00:00:00; Fri: 11:00:00 - 02:00:00; Sat: 13:00:00 - 02:00:00; Sun: 08:00:00 - 00:00:00},{11:00:00 - 15:00:00",
    "services": "Bowling",
    "url": "https://www.bowling-alleys.com/rush-lanes-in-sioux-ia-51106-eb2/"
  },
  {
    "name": "Spencer Usbc",
    "address": {
      "streetAddress": "69 Cobbs Court",
      "locality": "Spencer",
      "region": "Iowa",
      "postalCode": "51301"
    },
    "phone": "712-262-6237",
    "hours": "",
    "services": "Bowling",
    "url": "https://www.bowling-alleys.com/spencer-usbc-in-spencer-ia-51301-796/"
  },
  {
    "name": "Star Lanes Cafe & Bowling Center",
    "address": {
      "streetAddress": "413 East Main Street",
      "locality": "Knoxville",
      "region": "Iowa",
      "postalCode": "50138"
    },
    "phone": "641-623-5195",
    "hours": "",
    "services": "Bowling, Cafe, Food & Dining",
    "url": "https://www.bowling-alleys.com/star-lanes-cafe-bowling-center-in-knoxville-ia-50138-d9c/"
  },
  {
    "name": "AMF New Holiday Bowl",
    "address": {
      "streetAddress": "1125 West Drive",
      "locality": "Kansas",
      "region": "Kansas",
      "postalCode": "66109"
    },
    "phone": "913-825-0501",
    "hours": "",
    "services": "Bowling, Bowling",
    "url": "https://www.bowling-alleys.com/amf-new-holiday-bowl-in-kansas-ks-66109-a28/"
  },
  {
    "name": "Alley Of Hutchinson",
    "address": {
      "streetAddress": "1221 East 23rd Avenue",
      "locality": "Hutchinson",
      "region": "Kansas",
      "postalCode": "67502"
    },
    "phone": "620-259-8770",
    "hours": "",
    "services": "Bowling",
    "url": "https://www.bowling-alleys.com/alley-of-hutchinson-in-hutchinson-ks-67502-ee2/"
  },
  {
    "name": "Amf Bowling Center",
    "address": {
      "streetAddress": "8788 Metcalf Avenue",
      "locality": "Overland Park",
      "region": "Kansas",
      "postalCode": "66212"
    },
    "phone": "913-648-2100",
    "hours": "",
    "services": "Bowling",
    "url": "https://www.bowling-alleys.com/amf-bowling-center-in-overland-park-ks-66212-3cb/"
  },
  {
    "name": "Hillcrest Lanes",
    "address": {
      "streetAddress": "2400 North Summit Street",
      "locality": "Arkansas",
      "region": "Kansas",
      "postalCode": "67005"
    },
    "phone": "620-442-9610",
    "hours": "",
    "services": "Bowling",
    "url": "https://www.bowling-alleys.com/hillcrest-lanes-in-arkansas-ks-67005-c3c/"
  },
  {
    "name": "Oakley's Family Fun Center",
    "address": {
      "streetAddress": "3531 Us-40",
      "locality": "Oakley",
      "region": "Kansas",
      "postalCode": "67748"
    },
    "phone": "785-671-3811",
    "hours": "Mon: 18:00:00 - 00:00:00; Wed: 06:00:00 - 00:00:00; Thu: 06:00:00 - 00:00:00; Fri: 06:00:00 - 00:00:00; Sat: 06:00:00 - 00:00:00",
    "services": "Bowling, Pizzas",
    "url": "https://www.bowling-alleys.com/oakleys-family-fun-center-in-oakley-ks-67748-1f5/"
  },
  {
    "name": "Rekat Recreation",
    "address": {
      "streetAddress": "4200 Southwest Huntoon Street",
      "locality": "Topeka",
      "region": "Kansas",
      "postalCode": "66604"
    },
    "phone": "785-272-1881",
    "hours": "",
    "services": "Bowling",
    "url": "https://www.bowling-alleys.com/rekat-recreation-in-topeka-ks-66604-de2/"
  },
  {
    "name": "Thunderbird Bowl",
    "address": {
      "streetAddress": "4214 North Sweet Bay Street",
      "locality": "Wichita",
      "region": "Kansas",
      "postalCode": "67226"
    },
    "phone": "316-684-5291",
    "hours": "",
    "services": "Bowling",
    "url": "https://www.bowling-alleys.com/thunderbird-bowl-in-wichita-ks-67226-309/"
  },
  {
    "name": "West Ridge Lanes",
    "address": {
      "streetAddress": "1935 Southwest Westport Drive",
      "locality": "Topeka",
      "region": "Kansas",
      "postalCode": "66604"
    },
    "phone": "785-273-3333",
    "hours": "",
    "services": "Bowling",
    "url": "https://www.bowling-alleys.com/west-ridge-lanes-in-topeka-ks-66604-6be/"
  },
  {
    "name": "Wheat Bowl",
    "address": {
      "streetAddress": "108 East First Street",
      "locality": "Claflin",
      "region": "Kansas",
      "postalCode": "67525"
    },
    "phone": "316-564-2736",
    "hours": "",
    "services": "Bowling",
    "url": "https://www.bowling-alleys.com/wheat-bowl-in-claflin-ks-67525-e6b/"
  },
  {
    "name": "Amf Bowling Center",
    "address": {
      "streetAddress": "600 East 14th Street",
      "locality": "Owensboro",
      "region": "Kentucky",
      "postalCode": "42303"
    },
    "phone": "502-684-5297",
    "hours": "",
    "services": "Bowling",
    "url": "https://www.bowling-alleys.com/amf-bowling-center-in-owensboro-ky-42303-db9/"
  },
  {
    "name": "Bowlodrome",
    "address": {
      "streetAddress": "600 East 14th Street",
      "locality": "Owensboro",
      "region": "Kentucky",
      "postalCode": "42303"
    },
    "phone": "270-684-4737",
    "hours": "",
    "services": "Bowling",
    "url": "https://www.bowling-alleys.com/bowlodrome-in-owensboro-ky-42303-1b6/"
  },
  {
    "name": "Cardinal Lanes Strike & Spare",
    "address": {
      "streetAddress": "816 Joe Clifton Drive",
      "locality": "Paducah",
      "region": "Kentucky",
      "postalCode": "42001"
    },
    "phone": "270-443-6441",
    "hours": "",
    "services": "Bowling",
    "url": "https://www.bowling-alleys.com/cardinal-lanes-strike-spare-in-paducah-ky-42001-a6d/"
  },
  {
    "name": "Collins Bowling-Southland",
    "address": {
      "streetAddress": "205 Southland Drive",
      "locality": "Lexington",
      "region": "Kentucky",
      "postalCode": "40503"
    },
    "phone": "859-277-5746",
    "hours": "",
    "services": "Bowling",
    "url": "https://www.bowling-alleys.com/collins-bowling-southland-in-lexington-ky-40503-97a/"
  },
  {
    "name": "Corvette Lanes",
    "address": {
      "streetAddress": "1314 Main Street",
      "locality": "Murray",
      "region": "Kentucky",
      "postalCode": "42071"
    },
    "phone": "270-753-2202",
    "hours": "",
    "services": "Bowling",
    "url": "https://www.bowling-alleys.com/corvette-lanes-in-murray-ky-42071-5fc/"
  },
  {
    "name": "Galactic Alley Bowling Center",
    "address": {
      "streetAddress": "701 Slone Drive",
      "locality": "Georgetown",
      "region": "Kentucky",
      "postalCode": "40324"
    },
    "phone": "502-570-2747",
    "hours": "",
    "services": "Bowling",
    "url": "https://www.bowling-alleys.com/galactic-alley-bowling-center-in-georgetown-ky-40324-c7d/"
  },
  {
    "name": "Pulaski Bowl",
    "address": {
      "streetAddress": "1084 South Highway 27",
      "locality": "Somerset",
      "region": "Kentucky",
      "postalCode": "42501"
    },
    "phone": "606-678-5332",
    "hours": "",
    "services": "Bowling",
    "url": "https://www.bowling-alleys.com/pulaski-bowl-in-somerset-ky-42501-309/"
  },
  {
    "name": "S And S Family",
    "address": {
      "streetAddress": "816 Joe Clifton Drive",
      "locality": "Paducah",
      "region": "Kentucky",
      "postalCode": "42001"
    },
    "phone": "270-443-8101",
    "hours": "",
    "services": "Bowling",
    "url": "https://www.bowling-alleys.com/s-and-s-family-in-paducah-ky-42001-e69/"
  },
  {
    "name": "Spare Time Lines",
    "address": {
      "streetAddress": "921 Main Street",
      "locality": "Madisonville",
      "region": "Kentucky",
      "postalCode": "42431"
    },
    "phone": "270-804-7324",
    "hours": "",
    "services": "Bowling",
    "url": "https://www.bowling-alleys.com/spare-time-lines-in-madisonville-ky-42431-12c/"
  },
  {
    "name": "Strike And Spare Fern Valley",
    "address": {
      "streetAddress": "6220 Shepherdsville Road",
      "locality": "Louisville",
      "region": "Kentucky",
      "postalCode": "40228"
    },
    "phone": "502-968-2695",
    "hours": "Mon: 09:00:00 - 23:00:00; Tue: 11:00:00 - 23:00:00; Wed: 11:00:00 - 00:00:00; Thu: 09:00:00 - 23:00:00; Fri: 11:00:00 - 22:00:00; Sat: 09:00:00 - 01:00:00; Sun: 13:00:00 - 00:00:00",
    "services": "Amusement Park, Bowling",
    "url": "https://www.bowling-alleys.com/strike-and-spare-fern-valley-in-louisville-ky-40228-207/"
  },
  {
    "name": "Superbowl Ultimate Family Fun",
    "address": {
      "streetAddress": "510 Commonwealth Avenue",
      "locality": "Erlanger",
      "region": "Kentucky",
      "postalCode": "41018"
    },
    "phone": "859-727-2000",
    "hours": "",
    "services": "Bowling",
    "url": "https://www.bowling-alleys.com/superbowl-ultimate-family-fun-in-erlanger-ky-41018-f1a/"
  },
  {
    "name": "Ten Pin Lanes",
    "address": {
      "streetAddress": "200 Ten Pin Lane",
      "locality": "Louisville",
      "region": "Kentucky",
      "postalCode": "40207"
    },
    "phone": "502-896-1727",
    "hours": "",
    "services": "Bowling",
    "url": "https://www.bowling-alleys.com/ten-pin-lanes-in-louisville-ky-40207-c37/"
  },
  {
    "name": "AMF Bowling Center",
    "address": {
      "streetAddress": "3640 Williams Boulevard",
      "locality": "Kenner",
      "region": "Louisiana",
      "postalCode": "70065"
    },
    "phone": "504-443-5353",
    "hours": "",
    "services": "Bowling",
    "url": "https://www.bowling-alleys.com/amf-bowling-center-in-kenner-la-70065-c13/"
  },
  {
    "name": "Lafayette Lanes",
    "address": {
      "streetAddress": "2825 Johnston Street",
      "locality": "Lafayette",
      "region": "Louisiana",
      "postalCode": "70503"
    },
    "phone": "337-234-8384",
    "hours": "",
    "services": "Bowling",
    "url": "https://www.bowling-alleys.com/lafayette-lanes-in-lafayette-la-70503-fbf/"
  },
  {
    "name": "Professional Shop",
    "address": {
      "streetAddress": "9829 Airline Highway",
      "locality": "Baton Rouge",
      "region": "Louisiana",
      "postalCode": "70816"
    },
    "phone": "225-924-9969",
    "hours": "",
    "services": "Bowling",
    "url": "https://www.bowling-alleys.com/professional-shop-in-baton-rouge-la-70816-de0/"
  },
  {
    "name": "1-7-10 Bowling & Entertainment Center",
    "address": {
      "streetAddress": "2246 North Belfast Avenue",
      "locality": "Augusta",
      "region": "Maine",
      "postalCode": "04330"
    },
    "phone": "207-621-1710",
    "hours": "Mon-Wed: 10:00 AM-09:00 PM,Thu 12:00 PM-09:00 PM,Fri 10:00 AM-11:00 PM,Sat 11:00 AM-11:00 PM,Sun 11:00 AM-08:00 PM",
    "services": "Bowling",
    "url": "https://www.bowling-alleys.com/1-7-10-bowling-entertainment-center-in-augusta-me-04330-d91/"
  },
  {
    "name": "Allplay Family Entertainment",
    "address": {
      "streetAddress": "402 Friendship Road",
      "locality": "Waldoboro",
      "region": "Maine",
      "postalCode": "04572"
    },
    "phone": "207-832-7860",
    "hours": "Mon 10:00 AM-10:00 PM,Tue 10:00 AM-10:00 PM,Wed 10:00 AM-10:00 PM,Thu 10:00 AM-10:00 PM,Fri 10:00 AM-11:00 PM,Sat 10:00 AM-11:00 PM,Sun 10:00 AM-09:00 PM",
    "services": "Bowling, Childrens & Family Entertainment",
    "url": "https://www.bowling-alleys.com/allplay-family-entertainment-in-waldoboro-me-04572-6ec/"
  },
  {
    "name": "Colonial Bowling Center",
    "address": {
      "streetAddress": "21 Newhall Road # B",
      "locality": "Windham",
      "region": "Maine",
      "postalCode": "04062"
    },
    "phone": "207-854-8936",
    "hours": "Mon-Sat: 09:00 AM-09:00 PM,Sun 12:00 PM-09:00 PM",
    "services": "Bowling",
    "url": "https://www.bowling-alleys.com/colonial-bowling-center-in-windham-me-04062-efd/"
  },
  {
    "name": "Eagle Lanes",
    "address": {
      "streetAddress": "21 Northfield Road",
      "locality": "Marshfield",
      "region": "Maine",
      "postalCode": "04654"
    },
    "phone": "207-255-6696",
    "hours": "",
    "services": "Bowling",
    "url": "https://www.bowling-alleys.com/eagle-lanes-in-marshfield-me-04654-313/"
  },
  {
    "name": "Frank Layne",
    "address": {
      "streetAddress": "95 Pine Street",
      "locality": "Fryeburg",
      "region": "Maine",
      "postalCode": "04037"
    },
    "phone": "207-935-3777",
    "hours": "",
    "services": "Bowling",
    "url": "https://www.bowling-alleys.com/frank-layne-in-fryeburg-me-04037-913/"
  },
  {
    "name": "Meadow Lanes Bowling Alley",
    "address": {
      "streetAddress": "Rr 2",
      "locality": "Farmington",
      "region": "Maine",
      "postalCode": "04938"
    },
    "phone": "207-778-6078",
    "hours": "",
    "services": "Bowling",
    "url": "https://www.bowling-alleys.com/meadow-lanes-bowling-alley-in-farmington-me-04938-e6d/"
  },
  {
    "name": "N E C's",
    "address": {
      "streetAddress": "26 Main Street",
      "locality": "Newport",
      "region": "Maine",
      "postalCode": "04953"
    },
    "phone": "207-368-2490",
    "hours": "",
    "services": "Bowling",
    "url": "https://www.bowling-alleys.com/n-e-cs-in-newport-me-04953-7d0/"
  },
  {
    "name": "Romar Bowling Lanes",
    "address": {
      "streetAddress": "19 Bridge Street",
      "locality": "Boothbay Harbor",
      "region": "Maine",
      "postalCode": "04538"
    },
    "phone": "207-633-5721",
    "hours": "",
    "services": "Bowling",
    "url": "https://www.bowling-alleys.com/romar-bowling-lanes-in-boothbay-harbor-me-04538-273/"
  },
  {
    "name": "Spare Time",
    "address": {
      "streetAddress": "110 Community Drive",
      "locality": "Augusta",
      "region": "Maine",
      "postalCode": "04330"
    },
    "phone": "207-626-3270",
    "hours": "",
    "services": "Bowling",
    "url": "https://www.bowling-alleys.com/spare-time-in-augusta-me-04330-e80/"
  },
  {
    "name": "The SugarBowl",
    "address": {
      "streetAddress": "1242 Carrabassett Drive",
      "locality": "Carrabassett Valley",
      "region": "Maine",
      "postalCode": "04947"
    },
    "phone": "207-235-3300",
    "hours": "Mon: 15:00:00 - 22:00:00; Tue: 15:00:00 - 22:00:00; Wed: 15:00:00 - 22:00:00; Thu: 15:00:00 - 22:00:00; Fri: 15:00:00 - 22:00:00; Sat: 12:00:00 - 22:00:00; Sun: 12:00:00 - 22:00:00",
    "services": "Bowling",
    "url": "https://www.bowling-alleys.com/the-sugarbowl-in-carrabassett-valley-me-04947-be9/"
  },
  {
    "name": "Yankee Lanes Of Brunswick",
    "address": {
      "streetAddress": "276 Bath Road",
      "locality": "Brunswick",
      "region": "Maine",
      "postalCode": "04011"
    },
    "phone": "207-725-2963",
    "hours": "Mon: 09:00:00 - 22:00:00; Tue: 09:00:00 - 22:00:00; Wed: 09:00:00 - 22:00:00; Thu: 09:00:00 - 22:00:00; Fri: 09:00:00 - 01:00:00; Sat: 09:00:00 - 01:00:00; Sun: 09:00:00 - 22:00:00",
    "services": "Bowling, Food & Dining",
    "url": "https://www.bowling-alleys.com/yankee-lanes-of-brunswick-in-brunswick-me-04011-5ab/"
  },
  {
    "name": "Bowlero Shrewsbury",
    "address": {
      "streetAddress": "405 Boston Turnpike # 9",
      "locality": "Shrewsbury",
      "region": "Massachusetts",
      "postalCode": "01545"
    },
    "phone": "508-754-7050",
    "hours": "",
    "services": "Bowling",
    "url": "https://www.bowling-alleys.com/bowlero-shrewsbury-in-shrewsbury-ma-01545-e65/"
  },
  {
    "name": "Candle Lanes",
    "address": {
      "streetAddress": "255 North Street Suite 1",
      "locality": "Pittsfield",
      "region": "Massachusetts",
      "postalCode": "01201"
    },
    "phone": "413-447-9640",
    "hours": "",
    "services": "Bowling, Bowling",
    "url": "https://www.bowling-alleys.com/candle-lanes-in-pittsfield-ma-01201-f8a/"
  },
  {
    "name": "Greylock Bowl & Golf",
    "address": {
      "streetAddress": "41 Roberts Drive",
      "locality": "North Adams",
      "region": "Massachusetts",
      "postalCode": "01247"
    },
    "phone": "413-664-4318",
    "hours": "",
    "services": "Bowling",
    "url": "https://www.bowling-alleys.com/greylock-bowl-golf-in-north-adams-ma-01247-22c/"
  },
  {
    "name": "Jillian's Lucky Strike",
    "address": {
      "streetAddress": "145 Ipswich Street",
      "locality": "Boston",
      "region": "Massachusetts",
      "postalCode": "02215"
    },
    "phone": "617-437-0300",
    "hours": "Mon-Sun: 11:00 AM-02:00 AM",
    "services": "Bowling, Bowling Equipment Repairs, Bowling Lessons",
    "url": "https://www.bowling-alleys.com/jillians-lucky-strike-in-boston-ma-02215-8b7/"
  },
  {
    "name": "Kingston Ten Pin",
    "address": {
      "streetAddress": "12 Wapping Road",
      "locality": "Kingston",
      "region": "Massachusetts",
      "postalCode": "02364"
    },
    "phone": "781-585-5151",
    "hours": "Mon-Tue: 03:00 PM-11:00 PM,Wed 10:30 AM-11:00 PM,Thu-Fri: 03:00 PM-11:00 PM,Sat 09:30 AM-11:00 PM,Sun 01:00 PM-11:00 PM",
    "services": "Bowling",
    "url": "https://www.bowling-alleys.com/kingston-ten-pin-in-kingston-ma-02364-0b4/"
  },
  {
    "name": "Melrose Bowl",
    "address": {
      "streetAddress": "18 Willow",
      "locality": "Melrose",
      "region": "Massachusetts",
      "postalCode": "02176"
    },
    "phone": "781-665-1700",
    "hours": "",
    "services": "Bowling",
    "url": "https://www.bowling-alleys.com/melrose-bowl-in-melrose-ma-02176-51c/"
  },
  {
    "name": "Mount Greylock Bowl",
    "address": {
      "streetAddress": "41 Roberts Drive",
      "locality": "North Adams",
      "region": "Massachusetts",
      "postalCode": "01247"
    },
    "phone": "413-663-3761",
    "hours": "Mon-Tue: 05:00 PM-10:00 PM,Wed-Thu: 11:30 AM-10:00 PM,Fri 11:30 AM-11:00 PM,Sat 10:00 AM-11:00 PM,Sun 12:00 PM-05:00 PM",
    "services": "Bowling",
    "url": "https://www.bowling-alleys.com/mount-greylock-bowl-in-north-adams-ma-01247-ccb/"
  },
  {
    "name": "North Bowl",
    "address": {
      "streetAddress": "51 Thompson Road",
      "locality": "Webster",
      "region": "Massachusetts",
      "postalCode": "01570"
    },
    "phone": "508-949-2695",
    "hours": "",
    "services": "Bowling",
    "url": "https://www.bowling-alleys.com/north-bowl-in-webster-ma-01570-b85/"
  },
  {
    "name": "Spare Time Family Fun Center",
    "address": {
      "streetAddress": "525 Pleasant Street",
      "locality": "Northampton",
      "region": "Massachusetts",
      "postalCode": "01060"
    },
    "phone": "413-584-4830",
    "hours": "",
    "services": "Bowling",
    "url": "https://www.bowling-alleys.com/spare-time-family-fun-center-in-northampton-ma-01060-d7a/"
  },
  {
    "name": "Sparetime Recreation",
    "address": {
      "streetAddress": "117 Church Avenue",
      "locality": "Northbridge",
      "region": "Massachusetts",
      "postalCode": "01534"
    },
    "phone": "508-266-0699",
    "hours": "",
    "services": "Bowling",
    "url": "https://www.bowling-alleys.com/sparetime-recreation-in-northbridge-ma-01534-5fa/"
  },
  {
    "name": "Strikers Pub",
    "address": {
      "streetAddress": "66 Hathaway Road",
      "locality": "New Bedford",
      "region": "Massachusetts",
      "postalCode": "02746"
    },
    "phone": "508-993-1746",
    "hours": "Mon: 18:30:00 - 00:00:00; Tue: 18:30:00 - 00:00:00; Wed: 18:30:00 - 00:00:00; Thu: 18:30:00 - 00:00:00; Fri: 18:30:00 - 00:00:00; Sat: 18:30:00 - 01:00:00; Sun: 18:30:00 - 01:00:00",
    "services": "Bowling",
    "url": "https://www.bowling-alleys.com/strikers-pub-in-new-bedford-ma-02746-20d/"
  },
  {
    "name": "The Funtagious Function Hall & Game Room",
    "address": {
      "streetAddress": "18 Pond View Place # 18",
      "locality": "Tyngsboro",
      "region": "Massachusetts",
      "postalCode": "01879"
    },
    "phone": "978-390-3237",
    "hours": "Mon-Sun: 08:00 AM-12:00 AM",
    "services": "Bowling, Bowling, Bowling Equipment Repairs, Bowling Lessons",
    "url": "https://www.bowling-alleys.com/the-funtagious-function-hall-game-room-in-tyngsboro-ma-01879-002/"
  },
  {
    "name": "Diberville Family Fun Center",
    "address": {
      "streetAddress": "3200 Mallett Road",
      "locality": "D'Iberville",
      "region": "Mississippi",
      "postalCode": "39540"
    },
    "phone": "228-392-3396",
    "hours": "Mon-Thu: 10:00 AM-10:00 PM,Fri-Sat: 10:00 AM-00:00 PM,Sun 10:00 AM-10:00 PM",
    "services": "Bowling, Bowling Equipment Repairs, Bowling Lessons",
    "url": "https://www.bowling-alleys.com/diberville-family-fun-center-in-diberville-ms-39540-985/"
  },
  {
    "name": "Gautier Bowling Palace",
    "address": {
      "streetAddress": "2909 Old Spanish Trail",
      "locality": "Gautier",
      "region": "Mississippi",
      "postalCode": "39553"
    },
    "phone": "228-497-2822",
    "hours": "",
    "services": "Bowling",
    "url": "https://www.bowling-alleys.com/gautier-bowling-palace-in-gautier-ms-39553-a5c/"
  },
  {
    "name": "Harmony Bowling",
    "address": {
      "streetAddress": "1321 West Sunflower Road",
      "locality": "Cleveland",
      "region": "Mississippi",
      "postalCode": "38732"
    },
    "phone": "662-441-2939",
    "hours": "",
    "services": "Bowling",
    "url": "https://www.bowling-alleys.com/harmony-bowling-in-cleveland-ms-38732-41a/"
  },
  {
    "name": "Itawamitawamba Thunder Bowlba",
    "address": {
      "streetAddress": "212 North Cummings Street",
      "locality": "Fulton",
      "region": "Mississippi",
      "postalCode": "38843"
    },
    "phone": "662-862-7077",
    "hours": "",
    "services": "Bowling",
    "url": "https://www.bowling-alleys.com/itawamitawamba-thunder-bowlba-in-fulton-ms-38843-409/"
  },
  {
    "name": "Premierlanes",
    "address": {
      "streetAddress": "206 Common Wealth Boulevard",
      "locality": "Oxford",
      "region": "Mississippi",
      "postalCode": "38655"
    },
    "phone": "662-234-8431",
    "hours": "",
    "services": "Bowling",
    "url": "https://www.bowling-alleys.com/premierlanes-in-oxford-ms-38655-cd2/"
  },
  {
    "name": "Rivergate Bowling Lanes",
    "address": {
      "streetAddress": "109 North Meadow Road",
      "locality": "Natchez",
      "region": "Mississippi",
      "postalCode": "39120"
    },
    "phone": "601-442-8436",
    "hours": "",
    "services": "Bowling",
    "url": "https://www.bowling-alleys.com/rivergate-bowling-lanes-in-natchez-ms-39120-852/"
  },
  {
    "name": "The Island Strikz Entertainment Center",
    "address": {
      "streetAddress": "2302 East Pass Road",
      "locality": "Gulfport",
      "region": "Mississippi",
      "postalCode": "39507"
    },
    "phone": "228-896-1450",
    "hours": "",
    "services": "Bowling, Food & Dining",
    "url": "https://www.bowling-alleys.com/the-island-strikz-entertainment-center-in-gulfport-ms-39507-bf8/"
  },
  {
    "name": "Copper City Bowl And Cafe",
    "address": {
      "streetAddress": "1500 East Park Avenue",
      "locality": "Anaconda",
      "region": "Montana",
      "postalCode": "59711"
    },
    "phone": "406-563-3426",
    "hours": "",
    "services": "Bowling",
    "url": "https://www.bowling-alleys.com/copper-city-bowl-and-cafe-in-anaconda-mt-59711-2e6/"
  },
  {
    "name": "Lucky Strike Casino",
    "address": {
      "streetAddress": "515 Dearborn Avenue",
      "locality": "Missoula",
      "region": "Montana",
      "postalCode": "59801"
    },
    "phone": "406-549-4152",
    "hours": "",
    "services": "Bowling, Casino Games",
    "url": "https://www.bowling-alleys.com/lucky-strike-casino-in-missoula-mt-59801-76b/"
  },
  {
    "name": "Mount Bowling Proprietors",
    "address": {
      "streetAddress": "1299 Wicks Lane",
      "locality": "Billings",
      "region": "Montana",
      "postalCode": "59105"
    },
    "phone": "406-252-3220",
    "hours": "",
    "services": "Bowling",
    "url": "https://www.bowling-alleys.com/mount-bowling-proprietors-in-billings-mt-59105-0ab/"
  },
  {
    "name": "Pep's",
    "address": {
      "streetAddress": "53 Johannes Avenue",
      "locality": "Big Sandy",
      "region": "Montana",
      "postalCode": "59520"
    },
    "phone": "406-378-2293",
    "hours": "",
    "services": "Bowling",
    "url": "https://www.bowling-alleys.com/peps-in-big-sandy-mt-59520-044/"
  },
  {
    "name": "Pep's Bar & Lanes",
    "address": {
      "streetAddress": "65 Johaness Avenue",
      "locality": "Big Sandy",
      "region": "Montana",
      "postalCode": "59520"
    },
    "phone": "406-378-2293",
    "hours": "",
    "services": "Bowling",
    "url": "https://www.bowling-alleys.com/peps-bar-lanes-in-big-sandy-mt-59520-831/"
  },
  {
    "name": "The Alley Cat",
    "address": {
      "streetAddress": "427 South Main Street",
      "locality": "Conrad",
      "region": "Montana",
      "postalCode": "59425"
    },
    "phone": "406-466-2818",
    "hours": "",
    "services": "Bowling",
    "url": "https://www.bowling-alleys.com/the-alley-cat-in-conrad-mt-59425-c34/"
  },
  {
    "name": "The Pin N Cue",
    "address": {
      "streetAddress": "6570 US Highway 93 South",
      "locality": "Whitefish",
      "region": "Montana",
      "postalCode": "59937"
    },
    "phone": "406-862-7529",
    "hours": "Mon: 06:00:00 - 02:00:00; Tue: 06:00:00 - 02:00:00; Wed: 06:00:00 - 02:00:00; Thu: 06:00:00 - 02:00:00; Fri: 06:00:00 - 02:00:00; Sat: 06:00:00 - 02:00:00; Sun: 06:00:00 - 02:00:00",
    "services": "Baked Goods, Bowling, Coffee, Food & Dining",
    "url": "https://www.bowling-alleys.com/the-pin-n-cue-in-whitefish-mt-59937-986/"
  },
  {
    "name": "Town & Country Bowling Center",
    "address": {
      "streetAddress": "6126 US Highway 312",
      "locality": "Billings",
      "region": "Montana",
      "postalCode": "59105"
    },
    "phone": "406-373-5100",
    "hours": "",
    "services": "Bowling",
    "url": "https://www.bowling-alleys.com/town-country-bowling-center-in-billings-mt-59105-852/"
  },
  {
    "name": "V F W Bowling Alley",
    "address": {
      "streetAddress": "201 West Lynch Street",
      "locality": "Plains",
      "region": "Montana",
      "postalCode": "59859"
    },
    "phone": "406-826-3841",
    "hours": "",
    "services": "Bowling",
    "url": "https://www.bowling-alleys.com/v-f-w-bowling-alley-in-plains-mt-59859-b6b/"
  },
  {
    "name": "Amf Bowling Centers",
    "address": {
      "streetAddress": "1000 Riverside Boulevard Suite 200",
      "locality": "Norfolk",
      "region": "Nebraska",
      "postalCode": "68701"
    },
    "phone": "402-379-0551",
    "hours": "",
    "services": "Bowling",
    "url": "https://www.bowling-alleys.com/amf-bowling-centers-in-norfolk-ne-68701-c64/"
  },
  {
    "name": "Cairo Bowl And The Watering Hole",
    "address": {
      "streetAddress": "324 South High Street",
      "locality": "Cairo",
      "region": "Nebraska",
      "postalCode": "68824"
    },
    "phone": "308-485-4111",
    "hours": "Mon: 10:00:00 - 01:00:00; Tue: 10:00:00 - 01:00:00; Wed: 10:00:00 - 01:00:00; Thu: 10:00:00 - 01:00:00; Fri: 10:00:00 - 01:00:00; Sat: 10:00:00 - 01:00:00",
    "services": "Bowling",
    "url": "https://www.bowling-alleys.com/cairo-bowl-and-the-watering-hole-in-cairo-ne-68824-fa5/"
  },
  {
    "name": "Kings Lanes",
    "address": {
      "streetAddress": "1000 Riverside Boulevard # 200",
      "locality": "Norfolk",
      "region": "Nebraska",
      "postalCode": "68701"
    },
    "phone": "402-379-0551",
    "hours": "",
    "services": "Bowling",
    "url": "https://www.bowling-alleys.com/kings-lanes-in-norfolk-ne-68701-79b/"
  },
  {
    "name": "Leigh Lanes",
    "address": {
      "streetAddress": "134 East 2nd Street",
      "locality": "Leigh",
      "region": "Nebraska",
      "postalCode": "68643"
    },
    "phone": "402-487-2558",
    "hours": "",
    "services": "Bowling",
    "url": "https://www.bowling-alleys.com/leigh-lanes-in-leigh-ne-68643-c11/"
  },
  {
    "name": "Pinewood Bowl",
    "address": {
      "streetAddress": "3800 Vermaas Place # 200",
      "locality": "Lincoln",
      "region": "Nebraska",
      "postalCode": "68502"
    },
    "phone": "402-540-2094",
    "hours": "",
    "services": "Bowling",
    "url": "https://www.bowling-alleys.com/pinewood-bowl-in-lincoln-ne-68502-013/"
  },
  {
    "name": "Pleasure Lanes",
    "address": {
      "streetAddress": "632 North 10th Avenue",
      "locality": "Broken Bow",
      "region": "Nebraska",
      "postalCode": "68822"
    },
    "phone": "308-872-2886",
    "hours": "",
    "services": "Bowling",
    "url": "https://www.bowling-alleys.com/pleasure-lanes-in-broken-bow-ne-68822-7ca/"
  },
  {
    "name": "Sempecks",
    "address": {
      "streetAddress": "3375 Oak View Drive",
      "locality": "Omaha",
      "region": "Nebraska",
      "postalCode": "68144"
    },
    "phone": "402-255-3225",
    "hours": "",
    "services": "Bowling",
    "url": "https://www.bowling-alleys.com/sempecks-in-omaha-ne-68144-5dc/"
  },
  {
    "name": "Sports Bowl",
    "address": {
      "streetAddress": "1103 Grand Street",
      "locality": "St. Paul",
      "region": "Nebraska",
      "postalCode": "68873"
    },
    "phone": "308-452-3101",
    "hours": "",
    "services": "Amusement Park, Bowling",
    "url": "https://www.bowling-alleys.com/sports-bowl-in-st-paul-ne-68873-49a/"
  },
  {
    "name": "70 Lane Bowling Center",
    "address": {
      "streetAddress": "4500 West Tropicana Avenue",
      "locality": "Las Vegas",
      "region": "Nevada",
      "postalCode": "89103"
    },
    "phone": "702-365-7111",
    "hours": "",
    "services": "Bowling",
    "url": "https://www.bowling-alleys.com/70-lane-bowling-center-in-las-vegas-nv-89103-595/"
  },
  {
    "name": "Amf Bowling Centers",
    "address": {
      "streetAddress": "1201 Stardust Street",
      "locality": "Reno",
      "region": "Nevada",
      "postalCode": "89503"
    },
    "phone": "775-747-3522",
    "hours": "",
    "services": "Bowling",
    "url": "https://www.bowling-alleys.com/amf-bowling-centers-in-reno-nv-89503-e23/"
  },
  {
    "name": "Cal Bowling Supplies",
    "address": {
      "streetAddress": "150 North Gibson Road",
      "locality": "Henderson",
      "region": "Nevada",
      "postalCode": "89014"
    },
    "phone": "702-568-6170",
    "hours": "",
    "services": "Bowling",
    "url": "https://www.bowling-alleys.com/cal-bowling-supplies-in-henderson-nv-89014-98d/"
  },
  {
    "name": "Gold Coast Bowling Center",
    "address": {
      "streetAddress": "4000 West Flamingo Road",
      "locality": "Las Vegas",
      "region": "Nevada",
      "postalCode": "89103"
    },
    "phone": "702-367-4700",
    "hours": "Mon 09:00 AM-12:00 AM,Tue-Wed: 12:00 AM-01:00 AM & 09:00 AM-12:00 AM,Thu 09:00 AM-12:00 AM & 12:00 AM-01:00 AM,Fri-Sun: Open 24 Hours",
    "services": "Bowling, Bowling Equipment Repairs, Bowling Lessons",
    "url": "https://www.bowling-alleys.com/gold-coast-bowling-center-in-las-vegas-nv-89103-64e/"
  },
  {
    "name": "Orleans Bowling Center",
    "address": {
      "streetAddress": "4500 West Tropicana Avenue",
      "locality": "Las Vegas",
      "region": "Nevada",
      "postalCode": "89103"
    },
    "phone": "702-365-7400",
    "hours": "Mon-Sun: Open 24 Hours",
    "services": "Bowling, Bowling Equipment Repairs, Bowling Lessons",
    "url": "https://www.bowling-alleys.com/orleans-bowling-center-in-las-vegas-nv-89103-c7a/"
  },
  {
    "name": "Regal Entertainment Group",
    "address": {
      "streetAddress": "1301 West Sunset Road # A",
      "locality": "Henderson",
      "region": "Nevada",
      "postalCode": "89014"
    },
    "phone": "702-454-1186",
    "hours": "",
    "services": "Bowling, Food & Dining",
    "url": "https://www.bowling-alleys.com/regal-entertainment-group-in-henderson-nv-89014-fae/"
  },
  {
    "name": "South Point Race Book",
    "address": {
      "streetAddress": "9777 South Las Vegas Boulevard",
      "locality": "Las Vegas",
      "region": "Nevada",
      "postalCode": "89183"
    },
    "phone": "702-796-7111",
    "hours": "Mon: 07:00:00 - 07:00:00; Tue: 07:00:00 - 07:00:00; Wed: 07:00:00 - 07:00:00; Thu: 07:00:00 - 07:00:00; Fri: 07:00:00 - 07:00:00; Sat: 07:00:00 - 07:00:00; Sun: 07:00:00 - 07:00:00",
    "services": "Bowling, Casino Games",
    "url": "https://www.bowling-alleys.com/south-point-race-book-in-las-vegas-nv-89183-4c9/"
  },
  {
    "name": "Thursday Thunder",
    "address": {
      "streetAddress": "619 Bluerock Road",
      "locality": "Gardnerville",
      "region": "Nevada",
      "postalCode": "89460"
    },
    "phone": "775-781-8246",
    "hours": "",
    "services": "Bowling",
    "url": "https://www.bowling-alleys.com/thursday-thunder-in-gardnerville-nv-89460-423/"
  },
  {
    "name": "Wild Island Waterpark",
    "address": {
      "streetAddress": "250 Wild Island Court",
      "locality": "Sparks",
      "region": "Nevada",
      "postalCode": "89434"
    },
    "phone": "775-359-2927",
    "hours": "Mon: 11:00:00 - 19:00:00; Tue: 11:00:00 - 19:00:00; Wed: 11:00:00 - 19:00:00; Thu: 11:00:00 - 19:00:00; Fri: 11:00:00 - 19:00:00; Sat: 11:00:00 - 19:00:00; Sun: 11:00:00 - 19:00:00",
    "services": "Amusement Park, Bowling",
    "url": "https://www.bowling-alleys.com/wild-island-waterpark-in-sparks-nv-89434-0ef/"
  },
  {
    "name": "Bowl O Rama",
    "address": {
      "streetAddress": "599 Lafayette Road # 1",
      "locality": "Portsmouth",
      "region": "New Hampshire",
      "postalCode": "03801"
    },
    "phone": "603-436-0504",
    "hours": "",
    "services": "Bowling",
    "url": "https://www.bowling-alleys.com/bowl-o-rama-in-portsmouth-nh-03801-ed0/"
  },
  {
    "name": "Dover Bowl",
    "address": {
      "streetAddress": "887 Central Avenue",
      "locality": "Dover",
      "region": "New Hampshire",
      "postalCode": "03820"
    },
    "phone": "603-742-9632",
    "hours": "Mon: 15:00:00 - 22:00:00; Tue: 15:00:00 - 22:00:00; Wed: 15:00:00 - 22:00:00; Thu: 15:00:00 - 22:00:00; Fri: 11:00:00 - 01:00:00; Sat: 11:00:00 - 01:00:00; Sun: 11:00:00 - 22:00:00",
    "services": "Amusement Park, Bowling",
    "url": "https://www.bowling-alleys.com/dover-bowl-in-dover-nh-03820-688/"
  },
  {
    "name": "Lanes Brands",
    "address": {
      "streetAddress": "6 Bedford Farms Drive Suite 603",
      "locality": "Bedford",
      "region": "New Hampshire",
      "postalCode": "03110"
    },
    "phone": "603-627-9200",
    "hours": "",
    "services": "Bowling",
    "url": "https://www.bowling-alleys.com/lanes-brands-in-bedford-nh-03110-529/"
  },
  {
    "name": "Lucky Lanes",
    "address": {
      "streetAddress": "340 Amherst Street",
      "locality": "Nashua",
      "region": "New Hampshire",
      "postalCode": "03063"
    },
    "phone": "603-554-8300",
    "hours": "",
    "services": "Bowling",
    "url": "https://www.bowling-alleys.com/lucky-lanes-in-nashua-nh-03063-acf/"
  },
  {
    "name": "Room 111 At Victory Lanes",
    "address": {
      "streetAddress": "9 Central Street",
      "locality": "Woodsville",
      "region": "New Hampshire",
      "postalCode": "03785"
    },
    "phone": "603-243-0393",
    "hours": "Wed: 15:00:00 - 23:00:00; Thu: 15:00:00 - 00:00:00; Fri: 15:00:00 - 01:00:00; Sat: 12:00:00 - 01:00:00; Sun: 12:00:00 - 22:00:00",
    "services": "Bowling",
    "url": "https://www.bowling-alleys.com/room-111-at-victory-lanes-in-woodsville-nh-03785-b1f/"
  },
  {
    "name": "Stadium Lanes",
    "address": {
      "streetAddress": "216 Maple Street",
      "locality": "Manchester",
      "region": "New Hampshire",
      "postalCode": "03103"
    },
    "phone": "603-625-9656",
    "hours": "",
    "services": "Bowling",
    "url": "https://www.bowling-alleys.com/stadium-lanes-in-manchester-nh-03103-d37/"
  },
  {
    "name": "Desert Lanes",
    "address": {
      "streetAddress": "880 Idaho Avenue",
      "locality": "Holloman AFB",
      "region": "New Mexico",
      "postalCode": "88330"
    },
    "phone": "575-572-7378",
    "hours": "",
    "services": "Bowling",
    "url": "https://www.bowling-alleys.com/desert-lanes-in-holloman-afb-nm-88330-d94/"
  },
  {
    "name": "Holloman Bowling Center",
    "address": {
      "streetAddress": "880 Idaho Street",
      "locality": "Holloman AFB",
      "region": "New Mexico",
      "postalCode": "88330"
    },
    "phone": "575-572-7378",
    "hours": "",
    "services": "Bowling",
    "url": "https://www.bowling-alleys.com/holloman-bowling-center-in-holloman-afb-nm-88330-151/"
  },
  {
    "name": "Lucky 66 Events",
    "address": {
      "streetAddress": "6132 4th Street Northwest",
      "locality": "Los Ranchos de Albuquerque",
      "region": "New Mexico",
      "postalCode": "87107"
    },
    "phone": "505-345-2506",
    "hours": "",
    "services": "Bowling",
    "url": "https://www.bowling-alleys.com/lucky-66-events-in-los-ranchos-de-albuquerque-nm-87107-725/"
  },
  {
    "name": "Main Event Entertainment",
    "address": {
      "streetAddress": "4040 Pan American Freeway Northeast",
      "locality": "Albuquerque",
      "region": "New Mexico",
      "postalCode": "87107"
    },
    "phone": "505-884-4928",
    "hours": "",
    "services": "Bowling",
    "url": "https://www.bowling-alleys.com/main-event-entertainment-in-albuquerque-nm-87107-660/"
  },
  {
    "name": "Roadrunner Lanes",
    "address": {
      "streetAddress": "Dyer Street Suite 234",
      "locality": "White Sands",
      "region": "New Mexico",
      "postalCode": "88002"
    },
    "phone": "575-678-1394",
    "hours": "Mon-Fri: 07:00 AM-04:30 PM,Sat-Sun: Closed",
    "services": "Bowling",
    "url": "https://www.bowling-alleys.com/roadrunner-lanes-in-white-sands-nm-88002-6f2/"
  },
  {
    "name": "Starlight Bowling Bar & Grill",
    "address": {
      "streetAddress": "54 Jemez Dam Road",
      "locality": "Bernalillo",
      "region": "New Mexico",
      "postalCode": "87004"
    },
    "phone": "505-867-0000",
    "hours": "Mon: 08:00:00 - 04:00:00; Tue: 08:00:00 - 04:00:00; Wed: 08:00:00 - 23:55:00; Thu: 08:00:00 - 23:55:00; Fri: 00:00:00 - 23:55:00; Sat: 00:00:00 - 23:55:00; Sun: 08:00:00 - 04:00:00",
    "services": "Bowling, Food & Dining",
    "url": "https://www.bowling-alleys.com/starlight-bowling-bar-grill-in-bernalillo-nm-87004-ece/"
  },
  {
    "name": "Oakes Bowling Lanes",
    "address": {
      "streetAddress": "410 Main Avenue",
      "locality": "Oakes",
      "region": "North Dakota",
      "postalCode": "58474"
    },
    "phone": "701-742-3440",
    "hours": "",
    "services": "Bowling",
    "url": "https://www.bowling-alleys.com/oakes-bowling-lanes-in-oakes-nd-58474-163/"
  },
  {
    "name": "Prairie Lanes",
    "address": {
      "streetAddress": "508 Main Avenue East",
      "locality": "Rolla",
      "region": "North Dakota",
      "postalCode": "58367"
    },
    "phone": "701-477-9723",
    "hours": "",
    "services": "Bowling",
    "url": "https://www.bowling-alleys.com/prairie-lanes-in-rolla-nd-58367-101/"
  },
  {
    "name": "AMF Boulevard Lanes",
    "address": {
      "streetAddress": "3501 South Boulevard Street",
      "locality": "Edmond",
      "region": "Oklahoma",
      "postalCode": "73013"
    },
    "phone": "405-348-3210",
    "hours": "Mon: 10:00:00 - 23:00:00; Tue: 12:00:00 - 23:00:00; Wed: 10:00:00 - 23:00:00; Thu: 12:00:00 - 23:00:00; Fri: 12:00:00 - 01:00:00; Sat: 10:00:00 - 01:00:00; Sun: 12:00:00 - 22:00:00",
    "services": "Arcades, Bowling, Food & Dining",
    "url": "https://www.bowling-alleys.com/amf-boulevard-lanes-in-edmond-ok-73013-964/"
  },
  {
    "name": "AMF Bowling Center",
    "address": {
      "streetAddress": "4600 Northwest 23rd Street",
      "locality": "Oklahoma",
      "region": "Oklahoma",
      "postalCode": "73127"
    },
    "phone": "405-942-5545",
    "hours": "",
    "services": "Bowling",
    "url": "https://www.bowling-alleys.com/amf-bowling-center-in-oklahoma-ok-73127-5e1/"
  },
  {
    "name": "AMF Bowling Center",
    "address": {
      "streetAddress": "3501 South Boulevard",
      "locality": "Edmond",
      "region": "Oklahoma",
      "postalCode": "73013"
    },
    "phone": "405-348-3210",
    "hours": "",
    "services": "Bowling",
    "url": "https://www.bowling-alleys.com/amf-bowling-center-in-edmond-ok-73013-e34/"
  },
  {
    "name": "Alley Entertainment Center",
    "address": {
      "streetAddress": "1950 North Council Avenue",
      "locality": "Blanchard",
      "region": "Oklahoma",
      "postalCode": "73010"
    },
    "phone": "405-485-2333",
    "hours": "",
    "services": "Bowling",
    "url": "https://www.bowling-alleys.com/alley-entertainment-center-in-blanchard-ok-73010-1f6/"
  },
  {
    "name": "Amf Bowling Centers",
    "address": {
      "streetAddress": "500 East Main Street",
      "locality": "Yukon",
      "region": "Oklahoma",
      "postalCode": "73099"
    },
    "phone": "405-354-7202",
    "hours": "",
    "services": "Bowling",
    "url": "https://www.bowling-alleys.com/amf-bowling-centers-in-yukon-ok-73099-f35/"
  },
  {
    "name": "Bowler's Professional Shop",
    "address": {
      "streetAddress": "14 West Janice Avenue",
      "locality": "Yukon",
      "region": "Oklahoma",
      "postalCode": "73099"
    },
    "phone": "405-354-7241",
    "hours": "",
    "services": "Bowling",
    "url": "https://www.bowling-alleys.com/bowlers-professional-shop-in-yukon-ok-73099-ba3/"
  },
  {
    "name": "Chisholm Trail Lanes",
    "address": {
      "streetAddress": "1112 South Highway 81",
      "locality": "Duncan",
      "region": "Oklahoma",
      "postalCode": "73533"
    },
    "phone": "580-255-6973",
    "hours": "",
    "services": "Bowling",
    "url": "https://www.bowling-alleys.com/chisholm-trail-lanes-in-duncan-ok-73533-0be/"
  },
  {
    "name": "Club 60 West Event Center",
    "address": {
      "streetAddress": "100 Jackpot Place",
      "locality": "Wyandotte",
      "region": "Oklahoma",
      "postalCode": "74370"
    },
    "phone": "918-678-4964",
    "hours": "Mon: 17:00:00 - 00:00:00; Tue: 17:00:00 - 00:00:00; Wed: 17:00:00 - 00:00:00; Thu: 17:00:00 - 00:00:00; Fri: 17:00:00 - 02:00:00; Sat: 11:00:00 - 02:00:00; Sun: 11:00:00 - 00:00:00",
    "services": "Bowling",
    "url": "https://www.bowling-alleys.com/club-60-west-event-center-in-wyandotte-ok-74370-5f7/"
  },
  {
    "name": "Durant Bowling Center",
    "address": {
      "streetAddress": "909 West Main Street",
      "locality": "Durant",
      "region": "Oklahoma",
      "postalCode": "74701"
    },
    "phone": "580-920-2898",
    "hours": "",
    "services": "Bowling",
    "url": "https://www.bowling-alleys.com/durant-bowling-center-in-durant-ok-74701-0d2/"
  },
  {
    "name": "Firelake",
    "address": {
      "streetAddress": "41107 Hardesty Road",
      "locality": "Shawnee",
      "region": "Oklahoma",
      "postalCode": "74801"
    },
    "phone": "405-275-2855",
    "hours": "",
    "services": "Bowling",
    "url": "https://www.bowling-alleys.com/firelake-in-shawnee-ok-74801-f97/"
  },
  {
    "name": "Firelake Bowling Center",
    "address": {
      "streetAddress": "40945 Hardesty Road",
      "locality": "Shawnee",
      "region": "Oklahoma",
      "postalCode": "74801"
    },
    "phone": "405-275-0404",
    "hours": "",
    "services": "Bowling",
    "url": "https://www.bowling-alleys.com/firelake-bowling-center-in-shawnee-ok-74801-e49/"
  },
  {
    "name": "Generation Next",
    "address": {
      "streetAddress": "1533 Southeast 66th Street",
      "locality": "Oklahoma",
      "region": "Oklahoma",
      "postalCode": "73149"
    },
    "phone": "405-606-4455",
    "hours": "",
    "services": "Bowling",
    "url": "https://www.bowling-alleys.com/generation-next-in-oklahoma-ok-73149-080/"
  },
  {
    "name": "Great Balls Of Fire - Family Entertainment Center",
    "address": {
      "streetAddress": "3003 Elk Road",
      "locality": "McAlester",
      "region": "Oklahoma",
      "postalCode": "74501"
    },
    "phone": "918-426-7744",
    "hours": "Mon: 12:00:00 - 22:00:00; Tue: 12:00:00 - 22:00:00; Wed: 12:00:00 - 22:00:00; Thu: 12:00:00 - 22:00:00; Fri: 12:00:00 - 02:00:00; Sat: 09:00:00 - 02:00:00; Sun: 12:00:00 - 22:00:00",
    "services": "Amusement Park, Arcades, Bowling, Live Events",
    "url": "https://www.bowling-alleys.com/great-balls-of-fire-family-entertainment-center-in-mcalester-ok-74501-f3e/"
  },
  {
    "name": "Playland Lanes",
    "address": {
      "streetAddress": "105 5th Avenue Northeast",
      "locality": "Miami",
      "region": "Oklahoma",
      "postalCode": "74354"
    },
    "phone": "918-542-5798",
    "hours": "",
    "services": "Bowling",
    "url": "https://www.bowling-alleys.com/playland-lanes-in-miami-ok-74354-230/"
  },
  {
    "name": "Red Apple Bowling Center",
    "address": {
      "streetAddress": "1414 Southeast Washington Boulevard",
      "locality": "Bartlesville",
      "region": "Oklahoma",
      "postalCode": "74006"
    },
    "phone": "918-333-6640",
    "hours": "",
    "services": "Bowling",
    "url": "https://www.bowling-alleys.com/red-apple-bowling-center-in-bartlesville-ok-74006-403/"
  },
  {
    "name": "Trail Lanes",
    "address": {
      "streetAddress": "4709 West Owen K Garriott Road",
      "locality": "Enid",
      "region": "Oklahoma",
      "postalCode": "73703"
    },
    "phone": "580-233-8712",
    "hours": "",
    "services": "Bowling",
    "url": "https://www.bowling-alleys.com/trail-lanes-in-enid-ok-73703-239/"
  },
  {
    "name": "Allen's Crosley Lanes",
    "address": {
      "streetAddress": "2400 Southeast Evergreen Street",
      "locality": "Portland",
      "region": "Oregon",
      "postalCode": "97222"
    },
    "phone": "503-285-6026",
    "hours": "",
    "services": "Bowling",
    "url": "https://www.bowling-alleys.com/allens-crosley-lanes-in-portland-or-97222-d00/"
  },
  {
    "name": "Amf Bowling Centers",
    "address": {
      "streetAddress": "1245 Clay Street Southeast",
      "locality": "Albany",
      "region": "Oregon",
      "postalCode": "97322"
    },
    "phone": "541-926-2185",
    "hours": "",
    "services": "Bowling",
    "url": "https://www.bowling-alleys.com/amf-bowling-centers-in-albany-or-97322-4da/"
  },
  {
    "name": "Big Al's Beaverton",
    "address": {
      "streetAddress": "14950 Southwest Barrows Road",
      "locality": "Beaverton",
      "region": "Oregon",
      "postalCode": "97007"
    },
    "phone": "503-748-6118",
    "hours": "",
    "services": "Bowling",
    "url": "https://www.bowling-alleys.com/big-als-beaverton-in-beaverton-or-97007-506/"
  },
  {
    "name": "Cindy Bowling Ppmhnp - Cindy A Bowling RN",
    "address": {
      "streetAddress": "3795 River Road North Suite B",
      "locality": "Keizer",
      "region": "Oregon",
      "postalCode": "97303"
    },
    "phone": "503-390-0082",
    "hours": "",
    "services": "Bowling",
    "url": "https://www.bowling-alleys.com/cindy-bowling-ppmhnp-cindy-a-bowling-rn-in-keizer-or-97303-136/"
  },
  {
    "name": "Desert Lanes",
    "address": {
      "streetAddress": "1545 North 1st Street",
      "locality": "Hermiston",
      "region": "Oregon",
      "postalCode": "97838"
    },
    "phone": "541-567-6364",
    "hours": "",
    "services": "Bowling",
    "url": "https://www.bowling-alleys.com/desert-lanes-in-hermiston-or-97838-4b5/"
  },
  {
    "name": "Nickel Bowl",
    "address": {
      "streetAddress": "670 South Old Pacific Highway",
      "locality": "Myrtle Creek",
      "region": "Oregon",
      "postalCode": "97457"
    },
    "phone": "541-863-3438",
    "hours": "",
    "services": "Bowling",
    "url": "https://www.bowling-alleys.com/nickel-bowl-in-myrtle-creek-or-97457-e75/"
  },
  {
    "name": "Orchard Lanes Bowling Center",
    "address": {
      "streetAddress": "1141 Tucker Road",
      "locality": "Hood River",
      "region": "Oregon",
      "postalCode": "97031"
    },
    "phone": "541-386-1326",
    "hours": "",
    "services": "Bowling",
    "url": "https://www.bowling-alleys.com/orchard-lanes-bowling-center-in-hood-river-or-97031-12f/"
  },
  {
    "name": "Oregon State Us B C",
    "address": {
      "streetAddress": "236 Southeast 139th Avenue",
      "locality": "Portland",
      "region": "Oregon",
      "postalCode": "97233"
    },
    "phone": "503-253-8575",
    "hours": "",
    "services": "Bowling",
    "url": "https://www.bowling-alleys.com/oregon-state-us-b-c-in-portland-or-97233-965/"
  },
  {
    "name": "The Rose Bowl",
    "address": {
      "streetAddress": "3800 Southeast 164th Avenue",
      "locality": "Portland",
      "region": "Oregon",
      "postalCode": "97236"
    },
    "phone": "503-665-2134",
    "hours": "",
    "services": "Bowling",
    "url": "https://www.bowling-alleys.com/the-rose-bowl-in-portland-or-97236-535/"
  },
  {
    "name": "Amf Bolera Paradise Lanes",
    "address": {
      "streetAddress": "265 Cll Matadero",
      "locality": "San Juan",
      "region": "Puerto Rico",
      "postalCode": "00920"
    },
    "phone": "787-792-6594",
    "hours": "",
    "services": "Bowling",
    "url": "https://www.bowling-alleys.com/amf-bolera-paradise-lanes-in-san-juan-pr-00920-3d4/"
  },
  {
    "name": "Bolera Caribe",
    "address": {
      "streetAddress": "2004 Carr 506 # 101",
      "locality": "Coto Laurel",
      "region": "Puerto Rico",
      "postalCode": "00780"
    },
    "phone": "787-812-0375",
    "hours": "",
    "services": "Bowling",
    "url": "https://www.bowling-alleys.com/bolera-caribe-in-coto-laurel-pr-00780-b59/"
  },
  {
    "name": "Carolina Bowling Center",
    "address": {
      "streetAddress": "32325 Avenue Roberto Sanchez",
      "locality": "Carolina",
      "region": "Puerto Rico",
      "postalCode": "00983"
    },
    "phone": "787-257-4325",
    "hours": "",
    "services": "Bowling",
    "url": "https://www.bowling-alleys.com/carolina-bowling-center-in-carolina-pr-00983-62d/"
  },
  {
    "name": "Carolina Bowling Center",
    "address": {
      "streetAddress": "32325 Sabana Gardens Indl Pk",
      "locality": "Carolina",
      "region": "Puerto Rico",
      "postalCode": "00985"
    },
    "phone": "787-257-4305",
    "hours": "",
    "services": "Bowling",
    "url": "https://www.bowling-alleys.com/carolina-bowling-center-in-carolina-pr-00985-c90/"
  },
  {
    "name": "Amf Bowling Centers",
    "address": {
      "streetAddress": "1450 Elmwood Avenue",
      "locality": "Cranston",
      "region": "Rhode Island",
      "postalCode": "02910"
    },
    "phone": "401-467-8850",
    "hours": "",
    "services": "Bowling",
    "url": "https://www.bowling-alleys.com/amf-bowling-centers-in-cranston-ri-02910-223/"
  },
  {
    "name": "Meadowbrook Lanes - John Paterra II",
    "address": {
      "streetAddress": "2530 Warwick Avenue",
      "locality": "Warwick",
      "region": "Rhode Island",
      "postalCode": "02889"
    },
    "phone": "401-737-5402",
    "hours": "Mon-Tue: 09:00 AM-09:00 PM,Wed 11:00 AM-09:00 PM,Thu 09:00 AM-09:00 PM,Fri 09:00 AM-11:00 PM,Sat 11:00 AM-11:00 PM,Sun 10:00 AM-09:00 PM",
    "services": "Bowling",
    "url": "https://www.bowling-alleys.com/meadowbrook-lanes-john-paterra-ii-in-warwick-ri-02889-e7a/"
  },
  {
    "name": "AMF Bowling Center",
    "address": {
      "streetAddress": "740 South Pleasantburg Drive",
      "locality": "Greenville",
      "region": "South Carolina",
      "postalCode": "29607"
    },
    "phone": "864-242-5764",
    "hours": "",
    "services": "Bowling",
    "url": "https://www.bowling-alleys.com/amf-bowling-center-in-greenville-sc-29607-2a1/"
  },
  {
    "name": "Alley Cat Pro Shop",
    "address": {
      "streetAddress": "1140 Ribaut Road",
      "locality": "Beaufort",
      "region": "South Carolina",
      "postalCode": "29902"
    },
    "phone": "843-379-2695",
    "hours": "",
    "services": "Bowling",
    "url": "https://www.bowling-alleys.com/alley-cat-pro-shop-in-beaufort-sc-29902-3d7/"
  },
  {
    "name": "Amf Bowling Centers",
    "address": {
      "streetAddress": "1963 Savannah Highway",
      "locality": "Charleston",
      "region": "South Carolina",
      "postalCode": "29407"
    },
    "phone": "843-766-0241",
    "hours": "",
    "services": "Bowling",
    "url": "https://www.bowling-alleys.com/amf-bowling-centers-in-charleston-sc-29407-151/"
  },
  {
    "name": "Amf-Triangle Lanes",
    "address": {
      "streetAddress": "1963 Savannah Highway",
      "locality": "Charleston",
      "region": "South Carolina",
      "postalCode": "29407"
    },
    "phone": "843-766-0241",
    "hours": "",
    "services": "Bowling",
    "url": "https://www.bowling-alleys.com/amf-triangle-lanes-in-charleston-sc-29407-c6e/"
  },
  {
    "name": "Brunswick Azalea Lanes",
    "address": {
      "streetAddress": "2750 Austell Road Southwest",
      "locality": "Marietta",
      "region": "South Carolina",
      "postalCode": "29661"
    },
    "phone": "770-435-2120",
    "hours": "",
    "services": "Bowling",
    "url": "https://www.bowling-alleys.com/brunswick-azalea-lanes-in-marietta-sc-29661-79d/"
  },
  {
    "name": "Draft's Sports Bar & Grill",
    "address": {
      "streetAddress": "415 South Ocean Boulevard Street 2",
      "locality": "Myrtle Beach",
      "region": "South Carolina",
      "postalCode": "29577"
    },
    "phone": "843-213-5300",
    "hours": "",
    "services": "Bowling, Burgers, Grilled Food",
    "url": "https://www.bowling-alleys.com/drafts-sports-bar-grill-in-myrtle-beach-sc-29577-e96/"
  },
  {
    "name": "Golden Park",
    "address": {
      "streetAddress": "110 Balcome Boulevard",
      "locality": "Simpsonville",
      "region": "South Carolina",
      "postalCode": "29681"
    },
    "phone": "864-967-8554",
    "hours": "",
    "services": "Bowling",
    "url": "https://www.bowling-alleys.com/golden-park-in-simpsonville-sc-29681-05f/"
  },
  {
    "name": "Golden Park Bowling & Skate",
    "address": {
      "streetAddress": "108 Balcome Boulevard",
      "locality": "Simpsonville",
      "region": "South Carolina",
      "postalCode": "29681"
    },
    "phone": "864-967-8551",
    "hours": "",
    "services": "Bowling",
    "url": "https://www.bowling-alleys.com/golden-park-bowling-skate-in-simpsonville-sc-29681-cc8/"
  },
  {
    "name": "Jc's Lexington Bowl",
    "address": {
      "streetAddress": "5380 Augusta Road",
      "locality": "Lexington",
      "region": "South Carolina",
      "postalCode": "29072"
    },
    "phone": "803-359-2695",
    "hours": "",
    "services": "Bowling",
    "url": "https://www.bowling-alleys.com/jcs-lexington-bowl-in-lexington-sc-29072-ed8/"
  },
  {
    "name": "Kershaw Community & Recreation Center",
    "address": {
      "streetAddress": "200 Close Circle",
      "locality": "Kershaw",
      "region": "South Carolina",
      "postalCode": "29067"
    },
    "phone": "803-475-2142",
    "hours": "",
    "services": "Amusement Park, Bowling",
    "url": "https://www.bowling-alleys.com/kershaw-community-recreation-center-in-kershaw-sc-29067-713/"
  },
  {
    "name": "Little River Lanes",
    "address": {
      "streetAddress": "710 North",
      "locality": "North Myrtle Beach",
      "region": "South Carolina",
      "postalCode": "29582"
    },
    "phone": "843-663-2695",
    "hours": "",
    "services": "Bowling",
    "url": "https://www.bowling-alleys.com/little-river-lanes-in-north-myrtle-beach-sc-29582-0ff/"
  },
  {
    "name": "Marrington Bowling Center",
    "address": {
      "streetAddress": "784 Fletcher Street",
      "locality": "Goose Creek",
      "region": "South Carolina",
      "postalCode": "29445"
    },
    "phone": "843-414-7513",
    "hours": "",
    "services": "Bowling",
    "url": "https://www.bowling-alleys.com/marrington-bowling-center-in-goose-creek-sc-29445-e97/"
  },
  {
    "name": "Marrington Lanes",
    "address": {
      "streetAddress": "784 Fletcher Street",
      "locality": "Goose Creek",
      "region": "South Carolina",
      "postalCode": "29445"
    },
    "phone": "843-794-7235",
    "hours": "",
    "services": "Bowling",
    "url": "https://www.bowling-alleys.com/marrington-lanes-in-goose-creek-sc-29445-a04/"
  },
  {
    "name": "Professional Bowl Motors",
    "address": {
      "streetAddress": "701 Lady Street # B2510301",
      "locality": "Columbia",
      "region": "South Carolina",
      "postalCode": "29201"
    },
    "phone": "803-251-0301",
    "hours": "",
    "services": "Bowling",
    "url": "https://www.bowling-alleys.com/professional-bowl-motors-in-columbia-sc-29201-8c2/"
  },
  {
    "name": "Royal Lanes - Family Entertainment Center",
    "address": {
      "streetAddress": "106 Central Avenue",
      "locality": "Goose Creek",
      "region": "South Carolina",
      "postalCode": "29445"
    },
    "phone": "843-572-2695",
    "hours": "Mon: 09:00:00 - 02:00:00; Tue: 09:00:00 - 00:00:00; Wed: 09:00:00 - 00:00:00; Thu: 09:00:00 - 00:00:00; Fri: 09:00:00 - 02:00:00; Sat: 09:00:00 - 02:00:00; Sun: 10:00:00 - 22:00:00",
    "services": "Arcades, Bowling",
    "url": "https://www.bowling-alleys.com/royal-lanes-family-entertainment-center-in-goose-creek-sc-29445-d20/"
  },
  {
    "name": "Royal Z Lanes",
    "address": {
      "streetAddress": "8512 Two Notch Road",
      "locality": "Columbia",
      "region": "South Carolina",
      "postalCode": "29223"
    },
    "phone": "803-788-9208",
    "hours": "",
    "services": "Bowling",
    "url": "https://www.bowling-alleys.com/royal-z-lanes-in-columbia-sc-29223-01d/"
  },
  {
    "name": "Tri City Professional Shop",
    "address": {
      "streetAddress": "5515 Calhoun Memorial Highway",
      "locality": "Easley",
      "region": "South Carolina",
      "postalCode": "29640"
    },
    "phone": "864-855-9979",
    "hours": "",
    "services": "Bowling",
    "url": "https://www.bowling-alleys.com/tri-city-professional-shop-in-easley-sc-29640-b69/"
  },
  {
    "name": "Chamberlain Bowling Dome",
    "address": {
      "streetAddress": "301 North Merrill Street",
      "locality": "Chamberlain",
      "region": "South Dakota",
      "postalCode": "57325"
    },
    "phone": "605-234-6802",
    "hours": "Mon-Tue: Closed,Wed-Fri: 04:00 PM-10:00 PM,Sat-Sun: 01:00 PM-10:00 PM",
    "services": "Bowling",
    "url": "https://www.bowling-alleys.com/chamberlain-bowling-dome-in-chamberlain-sd-57325-9ea/"
  },
  {
    "name": "Jungle Lanes & Lounge",
    "address": {
      "streetAddress": "PO Box 415",
      "locality": "Groton",
      "region": "South Dakota",
      "postalCode": "57445"
    },
    "phone": "605-397-2606",
    "hours": "",
    "services": "Bowling",
    "url": "https://www.bowling-alleys.com/jungle-lanes-lounge-in-groton-sd-57445-5e6/"
  },
  {
    "name": "Plamor Lanes",
    "address": {
      "streetAddress": "311 Main Street East",
      "locality": "Wessington Springs",
      "region": "South Dakota",
      "postalCode": "57382"
    },
    "phone": "605-539-1431",
    "hours": "",
    "services": "Bowling, Bowling",
    "url": "https://www.bowling-alleys.com/plamor-lanes-in-wessington-springs-sd-57382-69a/"
  },
  {
    "name": "Prairie Lanes Bowling Alley",
    "address": {
      "streetAddress": "722 Western Avenue",
      "locality": "Brookings",
      "region": "South Dakota",
      "postalCode": "57006"
    },
    "phone": "605-692-4435",
    "hours": "Mon-Thu: 12:00 PM-10:00 PM,Fri-Sat: 12:00 PM-01:00 AM,Sun 12:00 PM-11:00 PM",
    "services": "Bowling, Grilled Food",
    "url": "https://www.bowling-alleys.com/prairie-lanes-bowling-alley-in-brookings-sd-57006-208/"
  },
  {
    "name": "The Four Lanes",
    "address": {
      "streetAddress": "219 Main Street",
      "locality": "New Effington",
      "region": "South Dakota",
      "postalCode": "57255"
    },
    "phone": "605-637-5341",
    "hours": "Mon-Sat: 05:00 PM-10:00 PM,Sun Closed",
    "services": "Bowling",
    "url": "https://www.bowling-alleys.com/the-four-lanes-in-new-effington-sd-57255-c52/"
  },
  {
    "name": "The Plains Dining & Recreation Center",
    "address": {
      "streetAddress": "960 4th Street Northeast",
      "locality": "Huron",
      "region": "South Dakota",
      "postalCode": "57350"
    },
    "phone": "605-352-0611",
    "hours": "Mon: 06:00:00 - 21:00:00; Tue: 06:00:00 - 21:00:00; Wed: 06:00:00 - 21:00:00; Thu: 06:00:00 - 21:00:00; Fri: 06:00:00 - 22:00:00; Sat: 06:00:00 - 22:00:00; Sun: 06:00:00 - 21:00:00",
    "services": "Bowling, Food & Dining",
    "url": "https://www.bowling-alleys.com/the-plains-dining-recreation-center-in-huron-sd-57350-9a5/"
  },
  {
    "name": "Tyler's Lanes",
    "address": {
      "streetAddress": "306 Vander Horck Street",
      "locality": "Britton",
      "region": "South Dakota",
      "postalCode": "57430"
    },
    "phone": "605-448-5723",
    "hours": "",
    "services": "Bowling",
    "url": "https://www.bowling-alleys.com/tylers-lanes-in-britton-sd-57430-110/"
  },
  {
    "name": "AMF Pla Mor Lanes",
    "address": {
      "streetAddress": "2906 Foster Creighton Drive",
      "locality": "Nashville",
      "region": "Tennessee",
      "postalCode": "37204"
    },
    "phone": "615-254-5809",
    "hours": "",
    "services": "Bowling",
    "url": "https://www.bowling-alleys.com/amf-pla-mor-lanes-in-nashville-tn-37204-d9f/"
  },
  {
    "name": "Crescent Bowling - Robert Baulch III",
    "address": {
      "streetAddress": "820 Fesslers Parkways Suite 107",
      "locality": "Nashville",
      "region": "Tennessee",
      "postalCode": "37210"
    },
    "phone": "615-259-2386",
    "hours": "",
    "services": "Bowling",
    "url": "https://www.bowling-alleys.com/crescent-bowling-robert-baulch-iii-in-nashville-tn-37210-533/"
  },
  {
    "name": "Cumberland Lanes",
    "address": {
      "streetAddress": "3930 Apache Trail",
      "locality": "Antioch",
      "region": "Tennessee",
      "postalCode": "37013"
    },
    "phone": "615-834-4693",
    "hours": "",
    "services": "Bowling",
    "url": "https://www.bowling-alleys.com/cumberland-lanes-in-antioch-tn-37013-d39/"
  },
  {
    "name": "Ebonite's Galaxy Lanes",
    "address": {
      "streetAddress": "730 Mooresville Pike",
      "locality": "Columbia",
      "region": "Tennessee",
      "postalCode": "38401"
    },
    "phone": "931-381-2695",
    "hours": "Tue: 17:00:00 - 22:00:00; Wed: 17:00:00 - 00:00:00; Thu: 17:00:00 - 00:00:00; Fri: 17:00:00 - 01:00:00; Sat: 17:00:00 - 01:00:00; Sun: 16:00:00 - 22:00:00",
    "services": "Bowling",
    "url": "https://www.bowling-alleys.com/ebonites-galaxy-lanes-in-columbia-tn-38401-bc1/"
  },
  {
    "name": "Funquest Family",
    "address": {
      "streetAddress": "440 West US Highway 72",
      "locality": "Collierville",
      "region": "Tennessee",
      "postalCode": "38017"
    },
    "phone": "901-850-9600",
    "hours": "",
    "services": "Bowling",
    "url": "https://www.bowling-alleys.com/funquest-family-in-collierville-tn-38017-9b6/"
  },
  {
    "name": "Gallatin Strike And Spare",
    "address": {
      "streetAddress": "90 Volunteer Drive",
      "locality": "Gallatin",
      "region": "Tennessee",
      "postalCode": "37066"
    },
    "phone": "615-230-7967",
    "hours": "",
    "services": "Bowling",
    "url": "https://www.bowling-alleys.com/gallatin-strike-and-spare-in-gallatin-tn-37066-2de/"
  },
  {
    "name": "Hermitage Strike And Spare",
    "address": {
      "streetAddress": "3436 Lebanon Pike",
      "locality": "Hermitage",
      "region": "Tennessee",
      "postalCode": "37076"
    },
    "phone": "615-883-8900",
    "hours": "Mon: 10:00:00 - 23:00:00; Tue: 10:00:00 - 02:00:00; Wed: 10:00:00 - 23:00:00; Thu: 10:00:00 - 23:00:00; Fri: 10:00:00 - 01:00:00; Sat: 10:00:00 - 01:00:00; Sun: 12:00:00 - 23:00:00",
    "services": "Bowling",
    "url": "https://www.bowling-alleys.com/hermitage-strike-and-spare-in-hermitage-tn-37076-a4a/"
  },
  {
    "name": "Hillwood Strike & Spare",
    "address": {
      "streetAddress": "3710 Old Hickory Boulevard",
      "locality": "Nashville",
      "region": "Tennessee",
      "postalCode": "37215"
    },
    "phone": "615-425-2695",
    "hours": "",
    "services": "Bowling",
    "url": "https://www.bowling-alleys.com/hillwood-strike-spare-in-nashville-tn-37215-fbb/"
  },
  {
    "name": "McCorvey's Pro Shop",
    "address": {
      "streetAddress": "5518 Brainerd Road",
      "locality": "Chattanooga",
      "region": "Tennessee",
      "postalCode": "37411"
    },
    "phone": "423-899-2251",
    "hours": "",
    "services": "Bowling",
    "url": "https://www.bowling-alleys.com/mccorveys-pro-shop-in-chattanooga-tn-37411-2c5/"
  },
  {
    "name": "Memphis Area Usbc",
    "address": {
      "streetAddress": "2756 Mount Moriah Parkways Suite 200",
      "locality": "Memphis",
      "region": "Tennessee",
      "postalCode": "38115"
    },
    "phone": "901-566-0025",
    "hours": "",
    "services": "Bowling",
    "url": "https://www.bowling-alleys.com/memphis-area-usbc-in-memphis-tn-38115-8c5/"
  },
  {
    "name": "Nashville Area Usbc Ba",
    "address": {
      "streetAddress": "505 Five Oaks Boulevard",
      "locality": "Lebanon",
      "region": "Tennessee",
      "postalCode": "37087"
    },
    "phone": "615-444-7699",
    "hours": "",
    "services": "Bowling",
    "url": "https://www.bowling-alleys.com/nashville-area-usbc-ba-in-lebanon-tn-37087-416/"
  },
  {
    "name": "Skyline Bowl",
    "address": {
      "streetAddress": "201 Kraft Street",
      "locality": "Clarksville",
      "region": "Tennessee",
      "postalCode": "37040"
    },
    "phone": "931-645-2456",
    "hours": "",
    "services": "Bowling",
    "url": "https://www.bowling-alleys.com/skyline-bowl-in-clarksville-tn-37040-93f/"
  },
  {
    "name": "Southside Social",
    "address": {
      "streetAddress": "1812 Chestnut Street",
      "locality": "Chattanooga",
      "region": "Tennessee",
      "postalCode": "37408"
    },
    "phone": "423-708-3280",
    "hours": "",
    "services": "Bowling",
    "url": "https://www.bowling-alleys.com/southside-social-in-chattanooga-tn-37408-321/"
  },
  {
    "name": "Strike & Spare Family Fun Center",
    "address": {
      "streetAddress": "941 Northwest Broad Street",
      "locality": "Murfreesboro",
      "region": "Tennessee",
      "postalCode": "37129"
    },
    "phone": "615-896-0945",
    "hours": "",
    "services": "Bowling",
    "url": "https://www.bowling-alleys.com/strike-spare-family-fun-center-in-murfreesboro-tn-37129-ef2/"
  },
  {
    "name": "Strike & Spare Fountain Lanes",
    "address": {
      "streetAddress": "3315 North Broadway Street",
      "locality": "Knoxville",
      "region": "Tennessee",
      "postalCode": "37917"
    },
    "phone": "865-687-4611",
    "hours": "",
    "services": "Bowling",
    "url": "https://www.bowling-alleys.com/strike-spare-fountain-lanes-in-knoxville-tn-37917-48f/"
  },
  {
    "name": "Tullahoma Lanes",
    "address": {
      "streetAddress": "900 South Anderson Street",
      "locality": "Tullahoma",
      "region": "Tennessee",
      "postalCode": "37388"
    },
    "phone": "931-455-1947",
    "hours": "",
    "services": "Bowling",
    "url": "https://www.bowling-alleys.com/tullahoma-lanes-in-tullahoma-tn-37388-978/"
  },
  {
    "name": "Western Avenue Strike & Spare",
    "address": {
      "streetAddress": "5700 Western Avenue",
      "locality": "Knoxville",
      "region": "Tennessee",
      "postalCode": "37921"
    },
    "phone": "865-588-1312",
    "hours": "Mon - Tue 11:00 pm - 11:30 pm,Wed 10:00 am - 11:30 pm,Thu - Fri 11:00 pm - 11:30 pm,Sat 9:00 am - 11:30 pm,Sun 1:00 pm - 11:30 pm",
    "services": "Bowling, Bowling",
    "url": "https://www.bowling-alleys.com/western-avenue-strike-spare-in-knoxville-tn-37921-cf9/"
  },
  {
    "name": "Tropical Ten Pins",
    "address": {
      "streetAddress": "145 Castle Coakley",
      "locality": "Charlotte Amalie",
      "region": "United States Virgin Islands",
      "postalCode": "00802"
    },
    "phone": "340-778-3994",
    "hours": "",
    "services": "Bowling",
    "url": "https://www.bowling-alleys.com/tropical-ten-pins-in-charlotte-amalie-vi-00802-d33/"
  },
  {
    "name": "All-Star Bowling & Entertainment",
    "address": {
      "streetAddress": "12101 South Factory Outlet Drive",
      "locality": "Draper",
      "region": "Utah",
      "postalCode": "84020"
    },
    "phone": "801-572-1122",
    "hours": "Mon 10:00 AM-12:00 AM,Tue 10:00 AM-12:00 AM,Wed 10:00 AM-12:00 AM,Thu 10:00 AM-12:00 AM,Fri 10:00 AM-12:00 AM,Sun 10:00 AM-12:00 AM",
    "services": "Bowling",
    "url": "https://www.bowling-alleys.com/all-star-bowling-entertainment-in-draper-ut-84020-907/"
  },
  {
    "name": "Amf Bowling Center",
    "address": {
      "streetAddress": "2265 South State Street",
      "locality": "Salt Lake",
      "region": "Utah",
      "postalCode": "84115"
    },
    "phone": "801-486-2176",
    "hours": "",
    "services": "Bowling",
    "url": "https://www.bowling-alleys.com/amf-bowling-center-in-salt-lake-ut-84115-e18/"
  },
  {
    "name": "Brigham City Family Fun Center",
    "address": {
      "streetAddress": "15 East 500 North",
      "locality": "Brigham",
      "region": "Utah",
      "postalCode": "84302"
    },
    "phone": "435-723-1402",
    "hours": "",
    "services": "Bowling",
    "url": "https://www.bowling-alleys.com/brigham-city-family-fun-center-in-brigham-ut-84302-36f/"
  },
  {
    "name": "Dixie Bowl",
    "address": {
      "streetAddress": "146 East City Center Street # A",
      "locality": "St. George",
      "region": "Utah",
      "postalCode": "84770"
    },
    "phone": "435-673-3272",
    "hours": "",
    "services": "Bowling",
    "url": "https://www.bowling-alleys.com/dixie-bowl-in-st-george-ut-84770-f31/"
  },
  {
    "name": "Fat Cats Salt Lake City",
    "address": {
      "streetAddress": "3739 South 900 East",
      "locality": "Millcreek",
      "region": "Utah",
      "postalCode": "84106"
    },
    "phone": "801-262-9890",
    "hours": "Mon: 10:00:00 - 00:00:00; Tue: 10:00:00 - 00:00:00; Wed: 10:00:00 - 00:00:00; Thu: 10:00:00 - 00:00:00; Fri: 10:00:00 - 01:00:00; Sat: 10:00:00 - 01:00:00; Sun: 11:00:00 - 00:00:00",
    "services": "Arcades, Bowling, Carnival Experience",
    "url": "https://www.bowling-alleys.com/fat-cats-salt-lake-city-in-millcreek-ut-84106-b38/"
  },
  {
    "name": "Rush Funplex",
    "address": {
      "streetAddress": "1806 South 2000 West",
      "locality": "Syracuse",
      "region": "Utah",
      "postalCode": "84075"
    },
    "phone": "801-779-2695",
    "hours": "",
    "services": "Bowling",
    "url": "https://www.bowling-alleys.com/rush-funplex-in-syracuse-ut-84075-d24/"
  },
  {
    "name": "The Grill / Bear River Bowling",
    "address": {
      "streetAddress": "1410 West Main Street",
      "locality": "Tremonton",
      "region": "Utah",
      "postalCode": "84337"
    },
    "phone": "435-257-1997",
    "hours": "Mon-Tue: 11:00 AM-09:00 PM,Wed-Sat: 11:00 AM-10:00 PM,Sun Closed",
    "services": "Bowling, Burgers, Deli",
    "url": "https://www.bowling-alleys.com/the-grill-bear-river-bowling-in-tremonton-ut-84337-3be/"
  },
  {
    "name": "UTE Lanes Restaurant & Ctrng",
    "address": {
      "streetAddress": "Highway 40",
      "locality": "Fort Duchesne",
      "region": "Utah",
      "postalCode": "84026"
    },
    "phone": "435-725-2341",
    "hours": "",
    "services": "Bowling, Food & Dining",
    "url": "https://www.bowling-alleys.com/ute-lanes-restaurant-ctrng-in-fort-duchesne-ut-84026-2c3/"
  },
  {
    "name": "Ute Lanes Resturant & Catering",
    "address": {
      "streetAddress": "7050 East Highway 40",
      "locality": "Fort Duchesne",
      "region": "Utah",
      "postalCode": "84026"
    },
    "phone": "435-725-2341",
    "hours": "",
    "services": "Bowling, Catering, Food & Dining",
    "url": "https://www.bowling-alleys.com/ute-lanes-resturant-catering-in-fort-duchesne-ut-84026-328/"
  },
  {
    "name": "Home Style Vermount Restaurant",
    "address": {
      "streetAddress": "2445 Sampsonville Road",
      "locality": "Enosburg Falls",
      "region": "Vermont",
      "postalCode": "05450"
    },
    "phone": "802-933-2030",
    "hours": "Mon: 06:00:00 - 14:00:00; Tue: 06:00:00 - 14:00:00; Wed: 06:00:00 - 14:00:00; Thu: 06:00:00 - 14:00:00; Fri: 06:00:00 - 14:00:00; Sat: 08:00:00 - 14:00:00; Sun: 08:00:00 - 13:00:00",
    "services": "Bowling",
    "url": "https://www.bowling-alleys.com/home-style-vermount-restaurant-in-enosburg-falls-vt-05450-e74/"
  },
  {
    "name": "St Albans Bowling Center",
    "address": {
      "streetAddress": "141 North Main Street",
      "locality": "St. Albans",
      "region": "Vermont",
      "postalCode": "05478"
    },
    "phone": "802-524-3785",
    "hours": "",
    "services": "Bowling",
    "url": "https://www.bowling-alleys.com/st-albans-bowling-center-in-st-albans-vt-05478-b79/"
  },
  {
    "name": "Twin City Family Fun Center",
    "address": {
      "streetAddress": "708 Route 302",
      "locality": "Barre",
      "region": "Vermont",
      "postalCode": "05641"
    },
    "phone": "802-476-6181",
    "hours": "Mon: 11:00:00 - 22:00:00; Tue: 11:00:00 - 22:00:00; Wed: 11:00:00 - 22:00:00; Thu: 11:00:00 - 22:00:00; Fri: 11:00:00 - 23:00:00; Sat: 10:00:00 - 23:00:00; Sun: 10:00:00 - 21:00:00",
    "services": "Arcades, Bowling, Food & Dining",
    "url": "https://www.bowling-alleys.com/twin-city-family-fun-center-in-barre-vt-05641-718/"
  },
  {
    "name": "Waynes Lanes And Joe's Grill",
    "address": {
      "streetAddress": "56 Gale Street",
      "locality": "Canaan",
      "region": "Vermont",
      "postalCode": "03576"
    },
    "phone": "802-266-8833",
    "hours": "",
    "services": "Bowling, Pizzas",
    "url": "https://www.bowling-alleys.com/waynes-lanes-and-joes-grill-in-canaan-vt-03576-b8b/"
  },
  {
    "name": "Bowlero Lynnwood",
    "address": {
      "streetAddress": "1222 164th Street Southwest",
      "locality": "Lynnwood",
      "region": "Washington",
      "postalCode": "98087"
    },
    "phone": "425-743-4422",
    "hours": "",
    "services": "Bowling",
    "url": "https://www.bowling-alleys.com/bowlero-lynnwood-in-lynnwood-wa-98087-7ef/"
  },
  {
    "name": "Classic Product",
    "address": {
      "streetAddress": "4810 D Street Northwest Suite 103",
      "locality": "Auburn",
      "region": "Washington",
      "postalCode": "98001"
    },
    "phone": "253-852-5669",
    "hours": "",
    "services": "Bowling",
    "url": "https://www.bowling-alleys.com/classic-product-in-auburn-wa-98001-c81/"
  },
  {
    "name": "Fairchild Bowling Lanes Pizza",
    "address": {
      "streetAddress": "130 North Foulois Avenue # 2248d",
      "locality": "Fairchild AFB",
      "region": "Washington",
      "postalCode": "99011"
    },
    "phone": "509-244-2162",
    "hours": "",
    "services": "Bowling",
    "url": "https://www.bowling-alleys.com/fairchild-bowling-lanes-pizza-in-fairchild-afb-wa-99011-22d/"
  },
  {
    "name": "Husted's Hazel Dell Lanes",
    "address": {
      "streetAddress": "6300 Northeast Highway 99",
      "locality": "Vancouver",
      "region": "Washington",
      "postalCode": "98665"
    },
    "phone": "360-694-8364",
    "hours": "Mon-Thu: 09:00 AM-11:00 PM,Fri-Sat: 09:00 AM-00:00 AM,Sun 08:00 AM-10:00 PM",
    "services": "Bowling",
    "url": "https://www.bowling-alleys.com/husteds-hazel-dell-lanes-in-vancouver-wa-98665-e56/"
  },
  {
    "name": "Northwest Bowltech",
    "address": {
      "streetAddress": "9406 232nd Street Southwest",
      "locality": "Edmonds",
      "region": "Washington",
      "postalCode": "98020"
    },
    "phone": "206-245-9767",
    "hours": "",
    "services": "Bowling",
    "url": "https://www.bowling-alleys.com/northwest-bowltech-in-edmonds-wa-98020-f99/"
  },
  {
    "name": "Oak Bowl & Mario's Pizza",
    "address": {
      "streetAddress": "531 Southeast Midway Boulevard",
      "locality": "Oak Harbor",
      "region": "Washington",
      "postalCode": "98277"
    },
    "phone": "360-679-2533",
    "hours": "",
    "services": "Bowling",
    "url": "https://www.bowling-alleys.com/oak-bowl-marios-pizza-in-oak-harbor-wa-98277-d2d/"
  },
  {
    "name": "Ozzie's Place",
    "address": {
      "streetAddress": "10710 Silverdale Way Northwest",
      "locality": "Silverdale",
      "region": "Washington",
      "postalCode": "98383"
    },
    "phone": "360-692-5761",
    "hours": "Mon: 06:00:00 - 00:00:00; Tue: 06:00:00 - 00:00:00; Wed: 06:00:00 - 00:00:00; Thu: 06:00:00 - 00:00:00; Fri: 06:00:00 - 00:00:00; Sat: 06:00:00 - 00:00:00; Sun: 06:00:00 - 00:00:00",
    "services": "Arcades, Bowling, Casino Games, Food & Dining",
    "url": "https://www.bowling-alleys.com/ozzies-place-in-silverdale-wa-98383-b15/"
  },
  {
    "name": "Paradise Lanes",
    "address": {
      "streetAddress": "12505 Pacific Avenue South",
      "locality": "Tacoma",
      "region": "Washington",
      "postalCode": "98444"
    },
    "phone": "253-537-6012",
    "hours": "",
    "services": "Bowling",
    "url": "https://www.bowling-alleys.com/paradise-lanes-in-tacoma-wa-98444-ce2/"
  },
  {
    "name": "Spin Alley",
    "address": {
      "streetAddress": "1430 Northwest Richmond Beach Road",
      "locality": "Shoreline",
      "region": "Washington",
      "postalCode": "98177"
    },
    "phone": "206-533-2345",
    "hours": "",
    "services": "Bowling",
    "url": "https://www.bowling-alleys.com/spin-alley-in-shoreline-wa-98177-b04/"
  },
  {
    "name": "Tower Lanes Entertainment Center",
    "address": {
      "streetAddress": "6323 6th Avenue",
      "locality": "Tacoma",
      "region": "Washington",
      "postalCode": "98406"
    },
    "phone": "253-564-8853",
    "hours": "",
    "services": "Bowling",
    "url": "https://www.bowling-alleys.com/tower-lanes-entertainment-center-in-tacoma-wa-98406-3f8/"
  },
  {
    "name": "Amf Bowling Centers",
    "address": {
      "streetAddress": "1706 Harper Road",
      "locality": "Beckley",
      "region": "West Virginia",
      "postalCode": "25801"
    },
    "phone": "304-255-4501",
    "hours": "",
    "services": "Bowling",
    "url": "https://www.bowling-alleys.com/amf-bowling-centers-in-beckley-wv-25801-910/"
  },
  {
    "name": "Pinheads Bowling",
    "address": {
      "streetAddress": "617 Jones Avenue",
      "locality": "Oak Hill",
      "region": "West Virginia",
      "postalCode": "25901"
    },
    "phone": "304-465-5500",
    "hours": "Mon: 11:00:00 - 23:00:00; Tue: 11:00:00 - 23:00:00; Wed: 11:00:00 - 23:00:00; Thu: 11:00:00 - 23:00:00; Fri: 11:00:00 - 23:00:00; Sat: 11:00:00 - 23:00:00; Sun: 12:00:00 - 22:00:00",
    "services": "Bowling",
    "url": "https://www.bowling-alleys.com/pinheads-bowling-in-oak-hill-wv-25901-c51/"
  },
  {
    "name": "Plaza Lanes",
    "address": {
      "streetAddress": "63-69 Water Street",
      "locality": "Logan",
      "region": "West Virginia",
      "postalCode": "25601"
    },
    "phone": "304-752-1162",
    "hours": "Mon 11:00 AM-10:00 PM,Tue 11:00 AM-10:00 PM,Wed 11:00 AM-10:00 PM,Thu 11:00 AM-10:00 PM,Fri 11:00 AM-10:00 PM,Sat 11:00 AM-12:00 AM,Sun 11:00 AM-12:00 AM",
    "services": "Bowling",
    "url": "https://www.bowling-alleys.com/plaza-lanes-in-logan-wv-25601-f7d/"
  },
  {
    "name": "South Branch Potomac Lanes",
    "address": {
      "streetAddress": "185 Hyde Street",
      "locality": "Moorefield",
      "region": "West Virginia",
      "postalCode": "26836"
    },
    "phone": "304-530-2695",
    "hours": "",
    "services": "Bowling",
    "url": "https://www.bowling-alleys.com/south-branch-potomac-lanes-in-moorefield-wv-26836-1dd/"
  },
  {
    "name": "Southside Bowl",
    "address": {
      "streetAddress": "3485 Winchester Avenue",
      "locality": "Martinsburg",
      "region": "West Virginia",
      "postalCode": "25405"
    },
    "phone": "304-267-2042",
    "hours": "",
    "services": "Bowling",
    "url": "https://www.bowling-alleys.com/southside-bowl-in-martinsburg-wv-25405-116/"
  },
  {
    "name": "Star Lanes",
    "address": {
      "streetAddress": "163 Garretts Fork Road",
      "locality": "Chapmanville",
      "region": "West Virginia",
      "postalCode": "25508"
    },
    "phone": "304-310-4258",
    "hours": "",
    "services": "Bowling",
    "url": "https://www.bowling-alleys.com/star-lanes-in-chapmanville-wv-25508-417/"
  },
  {
    "name": "Suburban Lanes Bowling Center",
    "address": {
      "streetAddress": "735 Chestnut Ridge Road # A",
      "locality": "Morgantown",
      "region": "West Virginia",
      "postalCode": "26505"
    },
    "phone": "304-599-3522",
    "hours": "",
    "services": "Bowling, Bowling",
    "url": "https://www.bowling-alleys.com/suburban-lanes-bowling-center-in-morgantown-wv-26505-1eb/"
  },
  {
    "name": "Weirton Bowling Alleys",
    "address": {
      "streetAddress": "3745 Main Street",
      "locality": "Weirton",
      "region": "West Virginia",
      "postalCode": "26062"
    },
    "phone": "304-748-6116",
    "hours": "",
    "services": "Bowling",
    "url": "https://www.bowling-alleys.com/weirton-bowling-alleys-in-weirton-wv-26062-4ee/"
  },
  {
    "name": "Badlands Saloon Liquor And Lanes",
    "address": {
      "streetAddress": "651 North Highway 414",
      "locality": "Mountain View",
      "region": "Wyoming",
      "postalCode": "82939"
    },
    "phone": "307-782-6887",
    "hours": "Mon: 21:00:00 - 02:00:00; Tue: 21:00:00 - 02:00:00; Wed: 09:00:00 - 02:00:00; Thu: 08:00:00 - 02:00:00; Fri: 08:00:00 - 02:00:00; Sat: 08:00:00 - 02:00:00; Sun: 09:00:00 - 22:00:00",
    "services": "Bowling",
    "url": "https://www.bowling-alleys.com/badlands-saloon-liquor-and-lanes-in-mountain-view-wy-82939-511/"
  },
  {
    "name": "Cheyenne Usbc Bowling Association",
    "address": {
      "streetAddress": "5611 Kennedy Drive",
      "locality": "Cheyenne",
      "region": "Wyoming",
      "postalCode": "82001"
    },
    "phone": "307-635-6463",
    "hours": "",
    "services": "Bowling",
    "url": "https://www.bowling-alleys.com/cheyenne-usbc-bowling-association-in-cheyenne-wy-82001-a3d/"
  },
  {
    "name": "Rose City Lanes",
    "address": {
      "streetAddress": "127 East 3rd Street",
      "locality": "Lovell",
      "region": "Wyoming",
      "postalCode": "82431"
    },
    "phone": "307-548-7732",
    "hours": "",
    "services": "Bowling",
    "url": "https://www.bowling-alleys.com/rose-city-lanes-in-lovell-wy-82431-2ee/"
  },
  {
    "name": "The Bean & Burger At Hurricane Lanes",
    "address": {
      "streetAddress": "602 South 12th Street",
      "locality": "Worland",
      "region": "Wyoming",
      "postalCode": "82401"
    },
    "phone": "307-347-4044",
    "hours": "Mon: 08:00:00 - 13:30:00; Tue: 08:00:00 - 13:30:00; Wed: 08:00:00 - 13:30:00; Thu: 08:00:00 - 13:30:00; Fri: 08:00:00 - 13:30:00",
    "services": "Bowling, Coffee",
    "url": "https://www.bowling-alleys.com/the-bean-burger-at-hurricane-lanes-in-worland-wy-82401-fcb/"
  },
  {
    "name": "Uinta Lanes",
    "address": {
      "streetAddress": "2631 Highway 150 South",
      "locality": "Evanston",
      "region": "Wyoming",
      "postalCode": "82930"
    },
    "phone": "307-789-4099",
    "hours": "Mon: 17:00:00 - 22:00:00; Tue: 17:00:00 - 22:00:00; Wed: 17:00:00 - 22:00:00; Thu: 17:00:00 - 22:00:00; Fri: 15:00:00 - 22:00:00; Sat: 15:00:00 - 22:00:00",
    "services": "Bowling",
    "url": "https://www.bowling-alleys.com/uinta-lanes-in-evanston-wy-82930-85b/"
  }
]